{"rows":[{"adcode":"110105","people_count_2010":3500000,"lat":39.921489,"lng":116.486409,"name":"朝阳区","level":"district","parent":"北京市市辖区"},{"adcode":"110128","people_count_2010":null,"lat":40.377362,"lng":116.843352,"name":"密云区","level":"district","parent":"北京市市辖区"},{"adcode":"110116","people_count_2010":372887,"lat":40.324272,"lng":116.637122,"name":"怀柔区","level":"district","parent":"北京市市辖区"},{"adcode":"110129","people_count_2010":null,"lat":40.465325,"lng":115.985006,"name":"延庆区","level":"district","parent":"北京市市辖区"},{"adcode":"110108","people_count_2010":3300000,"lat":39.956074,"lng":116.310316,"name":"海淀区","level":"district","parent":"北京市市辖区"},{"adcode":"110117","people_count_2010":415958,"lat":40.144783,"lng":117.112335,"name":"平谷区","level":"district","parent":"北京市市辖区"},{"adcode":"110109","people_count_2010":290476,"lat":39.937183,"lng":116.105381,"name":"门头沟区","level":"district","parent":"北京市市辖区"},{"adcode":"110114","people_count_2010":1700000,"lat":40.218085,"lng":116.235906,"name":"昌平区","level":"district","parent":"北京市市辖区"},{"adcode":"110115","people_count_2010":1400000,"lat":39.728908,"lng":116.338033,"name":"大兴区","level":"district","parent":"北京市市辖区"},{"adcode":"110102","people_count_2010":674531,"lat":39.915309,"lng":116.366794,"name":"西城区","level":"district","parent":"北京市市辖区"},{"adcode":"110106","people_count_2010":2100000,"lat":39.863642,"lng":116.286968,"name":"丰台区","level":"district","parent":"北京市市辖区"},{"adcode":"110112","people_count_2010":1200000,"lat":39.902486,"lng":116.658603,"name":"通州区","level":"district","parent":"北京市市辖区"},{"adcode":"110107","people_count_2010":616083,"lat":39.914601,"lng":116.195445,"name":"石景山区","level":"district","parent":"北京市市辖区"},{"adcode":"110101","people_count_2010":573180,"lat":39.917544,"lng":116.418757,"name":"东城区","level":"district","parent":"北京市市辖区"},{"adcode":"110113","people_count_2010":876620,"lat":40.128936,"lng":116.653525,"name":"顺义区","level":"district","parent":"北京市市辖区"},{"adcode":"110111","people_count_2010":1000000,"lat":39.735535,"lng":116.139157,"name":"房山区","level":"district","parent":"北京市市辖区"}],"total":16}