{"rows":[{"adcode":120101,"lng":117.195907,"lat":39.118327,"name":"和平区","level":"district","parent":120000},{"adcode":120102,"lng":117.226568,"lat":39.122125,"name":"河东区","level":"district","parent":120000},{"adcode":120103,"lng":117.217536,"lat":39.101897,"name":"河西区","level":"district","parent":120000},{"adcode":120104,"lng":117.164143,"lat":39.120474,"name":"南开区","level":"district","parent":120000},{"adcode":120105,"lng":117.201569,"lat":39.156632,"name":"河北区","level":"district","parent":120000},{"adcode":120106,"lng":117.163301,"lat":39.175066,"name":"红桥区","level":"district","parent":120000},{"adcode":120110,"lng":117.313967,"lat":39.087764,"name":"东丽区","level":"district","parent":120000},{"adcode":120111,"lng":117.012247,"lat":39.139446,"name":"西青区","level":"district","parent":120000},{"adcode":120112,"lng":117.382549,"lat":38.989577,"name":"津南区","level":"district","parent":120000},{"adcode":120113,"lng":117.13482,"lat":39.225555,"name":"北辰区","level":"district","parent":120000},{"adcode":120114,"lng":117.057959,"lat":39.376925,"name":"武清区","level":"district","parent":120000},{"adcode":120115,"lng":117.308094,"lat":39.716965,"name":"宝坻区","level":"district","parent":120000},{"adcode":120116,"lng":117.654173,"lat":39.032846,"name":"滨海新区","level":"district","parent":120000},{"adcode":120117,"lng":117.82828,"lat":39.328886,"name":"宁河区","level":"district","parent":120000},{"adcode":120118,"lng":116.925304,"lat":38.935671,"name":"静海区","level":"district","parent":120000},{"adcode":120119,"lng":117.407449,"lat":40.045342,"name":"蓟州区","level":"district","parent":120000}],"total":16}