{"rows":[{"adcode":130202,"lng":118.210821,"lat":39.615162,"name":"路南区","level":"district","parent":130200},{"adcode":130203,"lng":118.174736,"lat":39.628538,"name":"路北区","level":"district","parent":130200},{"adcode":130204,"lng":118.45429,"lat":39.715736,"name":"古冶区","level":"district","parent":130200},{"adcode":130205,"lng":118.264425,"lat":39.676171,"name":"开平区","level":"district","parent":130200},{"adcode":130207,"lng":118.110793,"lat":39.56303,"name":"丰南区","level":"district","parent":130200},{"adcode":130208,"lng":118.155779,"lat":39.831363,"name":"丰润区","level":"district","parent":130200},{"adcode":130209,"lng":118.446585,"lat":39.278277,"name":"曹妃甸区","level":"district","parent":130200},{"adcode":130224,"lng":118.681552,"lat":39.506201,"name":"滦南县","level":"district","parent":130200},{"adcode":130225,"lng":118.905341,"lat":39.42813,"name":"乐亭县","level":"district","parent":130200},{"adcode":130227,"lng":118.305139,"lat":40.146238,"name":"迁西县","level":"district","parent":130200},{"adcode":130229,"lng":117.753665,"lat":39.887323,"name":"玉田县","level":"district","parent":130200},{"adcode":130281,"lng":117.965875,"lat":40.188616,"name":"遵化市","level":"district","parent":130200},{"adcode":130283,"lng":118.701933,"lat":40.012108,"name":"迁安市","level":"district","parent":130200},{"adcode":130284,"lng":118.699547,"lat":39.744851,"name":"滦州市","level":"district","parent":130200}],"total":14}