{"rows":[{"adcode":130702,"lng":114.885658,"lat":40.813875,"name":"桥东区","level":"district","parent":130700},{"adcode":130703,"lng":114.882127,"lat":40.824385,"name":"桥西区","level":"district","parent":130700},{"adcode":130705,"lng":115.0632,"lat":40.609368,"name":"宣化区","level":"district","parent":130700},{"adcode":130706,"lng":115.281002,"lat":40.488645,"name":"下花园区","level":"district","parent":130700},{"adcode":130708,"lng":114.736131,"lat":40.765136,"name":"万全区","level":"district","parent":130700},{"adcode":130709,"lng":115.281652,"lat":40.971302,"name":"崇礼区","level":"district","parent":130700},{"adcode":130722,"lng":114.715951,"lat":41.151713,"name":"张北县","level":"district","parent":130700},{"adcode":130723,"lng":114.615809,"lat":41.850046,"name":"康保县","level":"district","parent":130700},{"adcode":130724,"lng":115.684836,"lat":41.667419,"name":"沽源县","level":"district","parent":130700},{"adcode":130725,"lng":113.977713,"lat":41.080091,"name":"尚义县","level":"district","parent":130700},{"adcode":130726,"lng":114.582695,"lat":39.837181,"name":"蔚县","level":"district","parent":130700},{"adcode":130727,"lng":114.167343,"lat":40.113419,"name":"阳原县","level":"district","parent":130700},{"adcode":130728,"lng":114.422364,"lat":40.671274,"name":"怀安县","level":"district","parent":130700},{"adcode":130730,"lng":115.520846,"lat":40.405405,"name":"怀来县","level":"district","parent":130700},{"adcode":130731,"lng":115.219246,"lat":40.378701,"name":"涿鹿县","level":"district","parent":130700},{"adcode":130732,"lng":115.832708,"lat":40.912081,"name":"赤城县","level":"district","parent":130700}],"total":16}