{"rows":[{"adcode":"130827","people_count_2010":250304,"lat":40.607981,"lng":118.488642,"name":"宽城满族自治县","level":"district","parent":"承德市"},{"adcode":"130132","people_count_2010":418466,"lat":37.762514,"lng":114.52618,"name":"元氏县","level":"district","parent":"石家庄市"},{"adcode":"130181","people_count_2010":615919,"lat":37.92904,"lng":115.217451,"name":"辛集市","level":"district","parent":"石家庄市"},{"adcode":"130205","people_count_2010":262571,"lat":39.676171,"lng":118.264425,"name":"开平区","level":"district","parent":"唐山市"},{"adcode":"130729","people_count_2010":211706,"lat":40.765136,"lng":114.736131,"name":"万全县","level":"district","parent":"张家口市"},{"adcode":"130208","people_count_2010":916092,"lat":39.831363,"lng":118.155779,"name":"丰润区","level":"district","parent":"唐山市"},{"adcode":"131002","people_count_2010":367670,"lat":39.502569,"lng":116.694544,"name":"安次区","level":"district","parent":"廊坊市"},{"adcode":"130304","people_count_2010":85647,"lat":39.825121,"lng":119.486286,"name":"北戴河区","level":"district","parent":"秦皇岛市"},{"adcode":"130121","people_count_2010":309882,"lat":38.033614,"lng":114.144488,"name":"井陉县","level":"district","parent":"石家庄市"},{"adcode":"130725","people_count_2010":151639,"lat":41.080091,"lng":113.977713,"name":"尚义县","level":"district","parent":"张家口市"},{"adcode":"130522","people_count_2010":204086,"lat":37.444009,"lng":114.506873,"name":"临城县","level":"district","parent":"邢台市"},{"adcode":"131022","people_count_2010":418689,"lat":39.436468,"lng":116.299894,"name":"固安县","level":"district","parent":"廊坊市"},{"adcode":"131025","people_count_2010":477773,"lat":38.699215,"lng":116.640735,"name":"大城县","level":"district","parent":"廊坊市"},{"adcode":"130223","people_count_2010":554315,"lat":39.744851,"lng":118.699547,"name":"滦县","level":"district","parent":"唐山市"},{"adcode":"130281","people_count_2010":737011,"lat":40.188616,"lng":117.965875,"name":"遵化市","level":"district","parent":"唐山市"},{"adcode":"130727","people_count_2010":258086,"lat":40.113419,"lng":114.167343,"name":"阳原县","level":"district","parent":"张家口市"},{"adcode":"130730","people_count_2010":352307,"lat":40.405405,"lng":115.520846,"name":"怀来县","level":"district","parent":"张家口市"},{"adcode":"130609","people_count_2010":null,"lat":39.020395,"lng":115.64941,"name":"徐水区","level":"district","parent":"保定市"},{"adcode":"130630","people_count_2010":260678,"lat":39.35755,"lng":114.692567,"name":"涞源县","level":"district","parent":"保定市"},{"adcode":"130726","people_count_2010":450236,"lat":39.837181,"lng":114.582695,"name":"蔚县","level":"district","parent":"张家口市"},{"adcode":"131127","people_count_2010":528693,"lat":37.686622,"lng":116.258446,"name":"景县","level":"district","parent":"衡水市"},{"adcode":"130627","people_count_2010":529067,"lat":38.748542,"lng":114.981241,"name":"唐县","level":"district","parent":"保定市"},{"adcode":"130706","people_count_2010":62764,"lat":40.488645,"lng":115.281002,"name":"下花园区","level":"district","parent":"张家口市"},{"adcode":"130804","people_count_2010":62454,"lat":40.546956,"lng":117.661154,"name":"鹰手营子矿区","level":"district","parent":"承德市"},{"adcode":"130823","people_count_2010":446939,"lat":41.00561,"lng":118.690238,"name":"平泉县","level":"district","parent":"承德市"},{"adcode":"130825","people_count_2010":372030,"lat":41.316667,"lng":117.736343,"name":"隆化县","level":"district","parent":"承德市"},{"adcode":"130426","people_count_2010":413057,"lat":36.563143,"lng":113.673297,"name":"涉县","level":"district","parent":"邯郸市"},{"adcode":"130982","people_count_2010":null,"lat":38.706513,"lng":116.106764,"name":"任丘市","level":"district","parent":"沧州市"},{"adcode":"130283","people_count_2010":728160,"lat":40.012108,"lng":118.701933,"name":"迁安市","level":"district","parent":"唐山市"},{"adcode":"130528","people_count_2010":764828,"lat":37.618956,"lng":114.921027,"name":"宁晋县","level":"district","parent":"邢台市"},{"adcode":"130802","people_count_2010":424897,"lat":40.976204,"lng":117.939152,"name":"双桥区","level":"district","parent":"承德市"},{"adcode":"130131","people_count_2010":433429,"lat":38.259311,"lng":114.184144,"name":"平山县","level":"district","parent":"石家庄市"},{"adcode":"130629","people_count_2010":258179,"lat":39.05282,"lng":115.866247,"name":"容城县","level":"district","parent":"保定市"},{"adcode":"130632","people_count_2010":437378,"lat":38.929912,"lng":115.931979,"name":"安新县","level":"district","parent":"保定市"},{"adcode":"130628","people_count_2010":345160,"lat":38.690092,"lng":115.778878,"name":"高阳县","level":"district","parent":"保定市"},{"adcode":"130631","people_count_2010":250014,"lat":38.707448,"lng":115.154009,"name":"望都县","level":"district","parent":"保定市"},{"adcode":"130634","people_count_2010":588559,"lat":38.619992,"lng":114.704055,"name":"曲阳县","level":"district","parent":"保定市"},{"adcode":"130637","people_count_2010":245504,"lat":38.458271,"lng":115.461798,"name":"博野县","level":"district","parent":"保定市"},{"adcode":"130636","people_count_2010":295764,"lat":38.845127,"lng":115.132749,"name":"顺平县","level":"district","parent":"保定市"},{"adcode":"130683","people_count_2010":370317,"lat":38.421367,"lng":115.33141,"name":"安国市","level":"district","parent":"保定市"},{"adcode":"130984","people_count_2010":810306,"lat":38.44149,"lng":116.089452,"name":"河间市","level":"district","parent":"沧州市"},{"adcode":"130981","people_count_2010":2200000,"lat":38.073479,"lng":116.570163,"name":"泊头市","level":"district","parent":"沧州市"},{"adcode":"130638","people_count_2010":359506,"lat":38.990819,"lng":116.107474,"name":"雄县","level":"district","parent":"保定市"},{"adcode":"130684","people_count_2010":640280,"lat":39.327689,"lng":115.882704,"name":"高碑店市","level":"district","parent":"保定市"},{"adcode":"130929","people_count_2010":579831,"lat":38.189661,"lng":116.123844,"name":"献县","level":"district","parent":"沧州市"},{"adcode":"130733","people_count_2010":106122,"lat":40.971302,"lng":115.281652,"name":"崇礼县","level":"district","parent":"张家口市"},{"adcode":"130123","people_count_2010":466807,"lat":38.147835,"lng":114.569887,"name":"正定县","level":"district","parent":"石家庄市"},{"adcode":"130183","people_count_2010":537679,"lat":38.027478,"lng":115.044886,"name":"晋州市","level":"district","parent":"石家庄市"},{"adcode":"130229","people_count_2010":684833,"lat":39.887323,"lng":117.753665,"name":"玉田县","level":"district","parent":"唐山市"},{"adcode":"130530","people_count_2010":169858,"lat":37.526216,"lng":115.247537,"name":"新河县","level":"district","parent":"邢台市"},{"adcode":"130534","people_count_2010":386231,"lat":37.059991,"lng":115.668999,"name":"清河县","level":"district","parent":"邢台市"},{"adcode":"130126","people_count_2010":333558,"lat":38.306546,"lng":114.37946,"name":"灵寿县","level":"district","parent":"石家庄市"},{"adcode":"130521","people_count_2010":466323,"lat":37.05073,"lng":114.561132,"name":"邢台县","level":"district","parent":"邢台市"},{"adcode":"130302","people_count_2010":null,"lat":39.943458,"lng":119.596224,"name":"海港区","level":"district","parent":"秦皇岛市"},{"adcode":"130402","people_count_2010":385626,"lat":36.603196,"lng":114.484989,"name":"邯山区","level":"district","parent":"邯郸市"},{"adcode":"130127","people_count_2010":186478,"lat":37.605714,"lng":114.610699,"name":"高邑县","level":"district","parent":"石家庄市"},{"adcode":"130428","people_count_2010":351690,"lat":36.555778,"lng":114.805154,"name":"肥乡县","level":"district","parent":"邯郸市"},{"adcode":"130424","people_count_2010":377398,"lat":36.443832,"lng":114.680356,"name":"成安县","level":"district","parent":"邯郸市"},{"adcode":"130821","people_count_2010":388554,"lat":40.768637,"lng":118.172496,"name":"承德县","level":"district","parent":"承德市"},{"adcode":"130535","people_count_2010":343384,"lat":36.8642,"lng":115.498684,"name":"临西县","level":"district","parent":"邢台市"},{"adcode":"130731","people_count_2010":333932,"lat":40.378701,"lng":115.219246,"name":"涿鹿县","level":"district","parent":"张家口市"},{"adcode":"131028","people_count_2010":118474,"lat":39.889266,"lng":116.986501,"name":"大厂回族自治县","level":"district","parent":"廊坊市"},{"adcode":"130526","people_count_2010":327926,"lat":37.129952,"lng":114.684469,"name":"任县","level":"district","parent":"邢台市"},{"adcode":"130826","people_count_2010":357029,"lat":41.209903,"lng":116.65121,"name":"丰宁满族自治县","level":"district","parent":"承德市"},{"adcode":"130133","people_count_2010":571077,"lat":37.754341,"lng":114.775362,"name":"赵县","level":"district","parent":"石家庄市"},{"adcode":"130108","people_count_2010":628572,"lat":38.027696,"lng":114.533257,"name":"裕华区","level":"district","parent":"石家庄市"},{"adcode":"130423","people_count_2010":600600,"lat":36.337604,"lng":114.610703,"name":"临漳县","level":"district","parent":"邯郸市"},{"adcode":"130227","people_count_2010":390128,"lat":40.146238,"lng":118.305139,"name":"迁西县","level":"district","parent":"唐山市"},{"adcode":"130184","people_count_2010":487652,"lat":38.344768,"lng":114.68578,"name":"新乐市","level":"district","parent":"石家庄市"},{"adcode":"131026","people_count_2010":500967,"lat":38.866801,"lng":116.460107,"name":"文安县","level":"district","parent":"廊坊市"},{"adcode":"130633","people_count_2010":537564,"lat":39.35297,"lng":115.501146,"name":"易县","level":"district","parent":"保定市"},{"adcode":"130983","people_count_2010":548507,"lat":38.369238,"lng":117.343803,"name":"黄骅市","level":"district","parent":"沧州市"},{"adcode":"130624","people_count_2010":205299,"lat":38.847276,"lng":114.198801,"name":"阜平县","level":"district","parent":"保定市"},{"adcode":"130681","people_count_2010":603535,"lat":39.485765,"lng":115.973409,"name":"涿州市","level":"district","parent":"保定市"},{"adcode":"130321","people_count_2010":496726,"lat":40.406023,"lng":118.954555,"name":"青龙满族自治县","level":"district","parent":"秦皇岛市"},{"adcode":"130324","people_count_2010":384439,"lat":39.891639,"lng":118.881809,"name":"卢龙县","level":"district","parent":"秦皇岛市"},{"adcode":"130303","people_count_2010":178769,"lat":39.998023,"lng":119.753591,"name":"山海关区","level":"district","parent":"秦皇岛市"},{"adcode":"130722","people_count_2010":318669,"lat":41.151713,"lng":114.715951,"name":"张北县","level":"district","parent":"张家口市"},{"adcode":"130721","people_count_2010":273506,"lat":40.562211,"lng":115.03308,"name":"宣化县","level":"district","parent":"张家口市"},{"adcode":"130608","people_count_2010":null,"lat":38.771012,"lng":115.492221,"name":"清苑区","level":"district","parent":"保定市"},{"adcode":"130732","people_count_2010":238169,"lat":40.912081,"lng":115.832708,"name":"赤城县","level":"district","parent":"张家口市"},{"adcode":"130306","people_count_2010":null,"lat":39.887053,"lng":119.240651,"name":"抚宁区","level":"district","parent":"秦皇岛市"},{"adcode":"130481","people_count_2010":819000,"lat":36.696115,"lng":114.194581,"name":"武安市","level":"district","parent":"邯郸市"},{"adcode":"130828","people_count_2010":421400,"lat":41.949404,"lng":117.764086,"name":"围场满族蒙古族自治县","level":"district","parent":"承德市"},{"adcode":"130529","people_count_2010":374634,"lat":37.21768,"lng":115.038782,"name":"巨鹿县","level":"district","parent":"邢台市"},{"adcode":"131128","people_count_2010":341087,"lat":37.869945,"lng":116.164727,"name":"阜城县","level":"district","parent":"衡水市"},{"adcode":"130433","people_count_2010":309032,"lat":36.539461,"lng":115.289057,"name":"馆陶县","level":"district","parent":"邯郸市"},{"adcode":"130111","people_count_2010":null,"lat":37.886911,"lng":114.654281,"name":"栾城区","level":"district","parent":"石家庄市"},{"adcode":"130523","people_count_2010":266620,"lat":37.287663,"lng":114.511523,"name":"内丘县","level":"district","parent":"邢台市"},{"adcode":"130803","people_count_2010":146878,"lat":40.959756,"lng":117.797485,"name":"双滦区","level":"district","parent":"承德市"},{"adcode":"130225","people_count_2010":526222,"lat":39.42813,"lng":118.905341,"name":"乐亭县","level":"district","parent":"唐山市"},{"adcode":"130421","people_count_2010":462012,"lat":36.593905,"lng":114.531083,"name":"邯郸县","level":"district","parent":"邯郸市"},{"adcode":"130435","people_count_2010":427610,"lat":36.773398,"lng":114.957588,"name":"曲周县","level":"district","parent":"邯郸市"},{"adcode":"130822","people_count_2010":314730,"lat":40.418525,"lng":117.507098,"name":"兴隆县","level":"district","parent":"承德市"},{"adcode":"130102","people_count_2010":479801,"lat":38.047501,"lng":114.548151,"name":"长安区","level":"district","parent":"石家庄市"},{"adcode":"130105","people_count_2010":228341,"lat":38.067142,"lng":114.465974,"name":"新华区","level":"district","parent":"石家庄市"},{"adcode":"131024","people_count_2010":343372,"lat":39.757212,"lng":117.007161,"name":"香河县","level":"district","parent":"廊坊市"},{"adcode":"130425","people_count_2010":767035,"lat":36.283316,"lng":115.152586,"name":"大名县","level":"district","parent":"邯郸市"},{"adcode":"130429","people_count_2010":943935,"lat":36.776413,"lng":114.496162,"name":"永年县","level":"district","parent":"邯郸市"},{"adcode":"130927","people_count_2010":366232,"lat":38.042439,"lng":116.709171,"name":"南皮县","level":"district","parent":"沧州市"},{"adcode":"130403","people_count_2010":363778,"lat":36.611082,"lng":114.494703,"name":"丛台区","level":"district","parent":"邯郸市"},{"adcode":"130202","people_count_2010":311076,"lat":39.615162,"lng":118.210821,"name":"路南区","level":"district","parent":"唐山市"},{"adcode":"130582","people_count_2010":498416,"lat":36.861903,"lng":114.504902,"name":"沙河市","level":"district","parent":"邢台市"},{"adcode":"130434","people_count_2010":809193,"lat":36.354248,"lng":114.93411,"name":"魏县","level":"district","parent":"邯郸市"},{"adcode":"130824","people_count_2010":287986,"lat":40.936644,"lng":117.337124,"name":"滦平县","level":"district","parent":"承德市"},{"adcode":"131126","people_count_2010":487025,"lat":37.350981,"lng":115.966747,"name":"故城县","level":"district","parent":"衡水市"},{"adcode":"130581","people_count_2010":469030,"lat":37.359668,"lng":115.398102,"name":"南宫市","level":"district","parent":"邢台市"},{"adcode":"130130","people_count_2010":502662,"lat":38.176376,"lng":114.977845,"name":"无极县","level":"district","parent":"石家庄市"},{"adcode":"130322","people_count_2010":559697,"lat":39.709729,"lng":119.164541,"name":"昌黎县","level":"district","parent":"秦皇岛市"},{"adcode":"130525","people_count_2010":506552,"lat":37.350925,"lng":114.776348,"name":"隆尧县","level":"district","parent":"邢台市"},{"adcode":"130406","people_count_2010":503911,"lat":36.420487,"lng":114.209936,"name":"峰峰矿区","level":"district","parent":"邯郸市"},{"adcode":"130502","people_count_2010":null,"lat":37.064125,"lng":114.507131,"name":"桥东区","level":"district","parent":"邢台市"},{"adcode":"130903","people_count_2010":308454,"lat":38.307405,"lng":116.840063,"name":"运河区","level":"district","parent":"沧州市"},{"adcode":"130635","people_count_2010":505572,"lat":38.496429,"lng":115.583631,"name":"蠡县","level":"district","parent":"保定市"},{"adcode":"130926","people_count_2010":334639,"lat":38.427102,"lng":115.835856,"name":"肃宁县","level":"district","parent":"沧州市"},{"adcode":"130928","people_count_2010":282410,"lat":37.628182,"lng":116.391512,"name":"吴桥县","level":"district","parent":"沧州市"},{"adcode":"130925","people_count_2010":436812,"lat":38.056141,"lng":117.229814,"name":"盐山县","level":"district","parent":"沧州市"},{"adcode":"130930","people_count_2010":202571,"lat":38.057953,"lng":117.105104,"name":"孟村回族自治县","level":"district","parent":"沧州市"},{"adcode":"130527","people_count_2010":325332,"lat":37.003812,"lng":114.691377,"name":"南和县","level":"district","parent":"邢台市"},{"adcode":"131023","people_count_2010":356481,"lat":39.319717,"lng":116.498089,"name":"永清县","level":"district","parent":"廊坊市"},{"adcode":"130682","people_count_2010":1200000,"lat":38.517602,"lng":114.991389,"name":"定州市","level":"district","parent":"保定市"},{"adcode":"130531","people_count_2010":283851,"lat":37.075548,"lng":115.142797,"name":"广宗县","level":"district","parent":"邢台市"},{"adcode":"130224","people_count_2010":584518,"lat":39.506201,"lng":118.681552,"name":"滦南县","level":"district","parent":"唐山市"},{"adcode":"131081","people_count_2010":622975,"lat":39.117331,"lng":116.392021,"name":"霸州市","level":"district","parent":"廊坊市"},{"adcode":"130431","people_count_2010":274328,"lat":36.914908,"lng":114.878517,"name":"鸡泽县","level":"district","parent":"邯郸市"},{"adcode":"130104","people_count_2010":287900,"lat":38.028383,"lng":114.462931,"name":"桥西区","level":"district","parent":"石家庄市"},{"adcode":"131181","people_count_2010":362013,"lat":37.542788,"lng":115.579173,"name":"冀州市","level":"district","parent":"衡水市"},{"adcode":"130703","people_count_2010":null,"lat":40.824385,"lng":114.882127,"name":"桥西区","level":"district","parent":"张家口市"},{"adcode":"130503","people_count_2010":null,"lat":37.068009,"lng":114.473687,"name":"桥西区","level":"district","parent":"邢台市"},{"adcode":"130404","people_count_2010":192023,"lat":36.615484,"lng":114.458242,"name":"复兴区","level":"district","parent":"邯郸市"},{"adcode":"130110","people_count_2010":null,"lat":38.093994,"lng":114.321023,"name":"鹿泉区","level":"district","parent":"石家庄市"},{"adcode":"130203","people_count_2010":743504,"lat":39.628538,"lng":118.174736,"name":"路北区","level":"district","parent":"唐山市"},{"adcode":"130427","people_count_2010":677884,"lat":36.367673,"lng":114.38208,"name":"磁县","level":"district","parent":"邯郸市"},{"adcode":"130728","people_count_2010":210914,"lat":40.671274,"lng":114.422364,"name":"怀安县","level":"district","parent":"张家口市"},{"adcode":"130125","people_count_2010":406353,"lat":38.437422,"lng":114.552734,"name":"行唐县","level":"district","parent":"石家庄市"},{"adcode":"130532","people_count_2010":300029,"lat":37.069404,"lng":115.029218,"name":"平乡县","level":"district","parent":"邢台市"},{"adcode":"130107","people_count_2010":95170,"lat":38.069748,"lng":114.058178,"name":"井陉矿区","level":"district","parent":"石家庄市"},{"adcode":"130129","people_count_2010":244799,"lat":37.660199,"lng":114.387756,"name":"赞皇县","level":"district","parent":"石家庄市"},{"adcode":"131102","people_count_2010":522147,"lat":37.732237,"lng":115.694945,"name":"桃城区","level":"district","parent":"衡水市"},{"adcode":"131122","people_count_2010":315693,"lat":37.803774,"lng":115.892415,"name":"武邑县","level":"district","parent":"衡水市"},{"adcode":"131121","people_count_2010":394469,"lat":37.511512,"lng":115.726499,"name":"枣强县","level":"district","parent":"衡水市"},{"adcode":"131123","people_count_2010":214549,"lat":38.03698,"lng":115.970236,"name":"武强县","level":"district","parent":"衡水市"},{"adcode":"131124","people_count_2010":280498,"lat":38.232671,"lng":115.726577,"name":"饶阳县","level":"district","parent":"衡水市"},{"adcode":"131125","people_count_2010":328512,"lat":38.233511,"lng":115.519627,"name":"安平县","level":"district","parent":"衡水市"},{"adcode":"130533","people_count_2010":556624,"lat":36.983272,"lng":115.272749,"name":"威县","level":"district","parent":"邢台市"},{"adcode":"130626","people_count_2010":517874,"lat":39.266195,"lng":115.796895,"name":"定兴县","level":"district","parent":"保定市"},{"adcode":"130702","people_count_2010":null,"lat":40.813875,"lng":114.885658,"name":"桥东区","level":"district","parent":"张家口市"},{"adcode":"130209","people_count_2010":null,"lat":39.278277,"lng":118.446585,"name":"曹妃甸区","level":"district","parent":"唐山市"},{"adcode":"130902","people_count_2010":null,"lat":38.308273,"lng":116.873049,"name":"新华区","level":"district","parent":"沧州市"},{"adcode":"130109","people_count_2010":null,"lat":38.033767,"lng":114.849647,"name":"藁城区","level":"district","parent":"石家庄市"},{"adcode":"130602","people_count_2010":730307,"lat":38.88662,"lng":115.470659,"name":"竞秀区","level":"district","parent":"保定市"},{"adcode":"130607","people_count_2010":null,"lat":38.95138,"lng":115.32442,"name":"满城区","level":"district","parent":"保定市"},{"adcode":"130128","people_count_2010":250264,"lat":38.18454,"lng":115.200207,"name":"深泽县","level":"district","parent":"石家庄市"},{"adcode":"131182","people_count_2010":36000000,"lat":38.00347,"lng":115.554596,"name":"深州市","level":"district","parent":"衡水市"},{"adcode":"130623","people_count_2010":339063,"lat":39.393148,"lng":115.711985,"name":"涞水县","level":"district","parent":"保定市"},{"adcode":"130606","people_count_2010":null,"lat":38.865005,"lng":115.500934,"name":"莲池区","level":"district","parent":"保定市"},{"adcode":"130524","people_count_2010":190225,"lat":37.483596,"lng":114.693382,"name":"柏乡县","level":"district","parent":"邢台市"},{"adcode":"130723","people_count_2010":204975,"lat":41.850046,"lng":114.615809,"name":"康保县","level":"district","parent":"张家口市"},{"adcode":"130922","people_count_2010":402137,"lat":38.569646,"lng":116.838384,"name":"青县","level":"district","parent":"沧州市"},{"adcode":"130204","people_count_2010":358461,"lat":39.715736,"lng":118.45429,"name":"古冶区","level":"district","parent":"唐山市"},{"adcode":"130921","people_count_2010":669019,"lat":38.219856,"lng":117.007478,"name":"沧县","level":"district","parent":"沧州市"},{"adcode":"130705","people_count_2010":370569,"lat":40.609368,"lng":115.0632,"name":"宣化区","level":"district","parent":"张家口市"},{"adcode":"130724","people_count_2010":174619,"lat":41.667419,"lng":115.684836,"name":"沽源县","level":"district","parent":"张家口市"},{"adcode":"131003","people_count_2010":500396,"lat":39.521931,"lng":116.713708,"name":"广阳区","level":"district","parent":"廊坊市"},{"adcode":"130923","people_count_2010":356502,"lat":37.88655,"lng":116.542062,"name":"东光县","level":"district","parent":"沧州市"},{"adcode":"130924","people_count_2010":201538,"lat":38.141582,"lng":117.496606,"name":"海兴县","level":"district","parent":"沧州市"},{"adcode":"130207","people_count_2010":595467,"lat":39.56303,"lng":118.110793,"name":"丰南区","level":"district","parent":"唐山市"},{"adcode":"131082","people_count_2010":652042,"lat":39.982778,"lng":117.077018,"name":"三河市","level":"district","parent":"廊坊市"},{"adcode":"130432","people_count_2010":268993,"lat":36.483603,"lng":114.950859,"name":"广平县","level":"district","parent":"邯郸市"},{"adcode":"130430","people_count_2010":227578,"lat":36.81325,"lng":115.168584,"name":"邱县","level":"district","parent":"邯郸市"}],"total":170}