{"rows":[{"adcode":140502,"lng":112.853106,"lat":35.496641,"name":"城区","level":"district","parent":140500},{"adcode":140521,"lng":112.187213,"lat":35.689472,"name":"沁水县","level":"district","parent":140500},{"adcode":140522,"lng":112.422014,"lat":35.482177,"name":"阳城县","level":"district","parent":140500},{"adcode":140524,"lng":113.278877,"lat":35.775614,"name":"陵川县","level":"district","parent":140500},{"adcode":140525,"lng":112.899137,"lat":35.617221,"name":"泽州县","level":"district","parent":140500},{"adcode":140581,"lng":112.930691,"lat":35.791355,"name":"高平市","level":"district","parent":140500}],"total":6}