{"rows":[{"adcode":140802,"lng":111.000627,"lat":35.025643,"name":"盐湖区","level":"district","parent":140800},{"adcode":140821,"lng":110.77493,"lat":35.141883,"name":"临猗县","level":"district","parent":140800},{"adcode":140822,"lng":110.843561,"lat":35.417042,"name":"万荣县","level":"district","parent":140800},{"adcode":140823,"lng":111.220306,"lat":35.353839,"name":"闻喜县","level":"district","parent":140800},{"adcode":140824,"lng":110.978996,"lat":35.600412,"name":"稷山县","level":"district","parent":140800},{"adcode":140825,"lng":111.225205,"lat":35.613697,"name":"新绛县","level":"district","parent":140800},{"adcode":140826,"lng":111.576182,"lat":35.49045,"name":"绛县","level":"district","parent":140800},{"adcode":140827,"lng":111.67099,"lat":35.298293,"name":"垣曲县","level":"district","parent":140800},{"adcode":140828,"lng":111.223174,"lat":35.140441,"name":"夏县","level":"district","parent":140800},{"adcode":140829,"lng":111.212377,"lat":34.837256,"name":"平陆县","level":"district","parent":140800},{"adcode":140830,"lng":110.69114,"lat":34.694769,"name":"芮城县","level":"district","parent":140800},{"adcode":140881,"lng":110.447984,"lat":34.865125,"name":"永济市","level":"district","parent":140800},{"adcode":140882,"lng":110.710268,"lat":35.59715,"name":"河津市","level":"district","parent":140800}],"total":13}