{"rows":[{"adcode":150100,"lng":111.670801,"lat":40.818311,"name":"呼和浩特市","level":"city","parent":150000},{"adcode":150200,"lng":109.840405,"lat":40.658168,"name":"包头市","level":"city","parent":150000},{"adcode":150300,"lng":106.825563,"lat":39.673734,"name":"乌海市","level":"city","parent":150000},{"adcode":150400,"lng":118.956806,"lat":42.275317,"name":"赤峰市","level":"city","parent":150000},{"adcode":150500,"lng":122.263119,"lat":43.617429,"name":"通辽市","level":"city","parent":150000},{"adcode":150600,"lng":109.99029,"lat":39.817179,"name":"鄂尔多斯市","level":"city","parent":150000},{"adcode":150700,"lng":119.758168,"lat":49.215333,"name":"呼伦贝尔市","level":"city","parent":150000},{"adcode":150800,"lng":107.416959,"lat":40.757402,"name":"巴彦淖尔市","level":"city","parent":150000},{"adcode":150900,"lng":113.114543,"lat":41.034126,"name":"乌兰察布市","level":"city","parent":150000},{"adcode":152200,"lng":122.070317,"lat":46.076268,"name":"兴安盟","level":"city","parent":150000},{"adcode":152500,"lng":116.090996,"lat":43.944018,"name":"锡林郭勒盟","level":"city","parent":150000},{"adcode":152900,"lng":105.706422,"lat":38.844814,"name":"阿拉善盟","level":"city","parent":150000}],"total":12}