{"rows":[{"adcode":150502,"lng":122.264042,"lat":43.617422,"name":"科尔沁区","level":"district","parent":150500},{"adcode":150521,"lng":123.313873,"lat":44.127166,"name":"科尔沁左翼中旗","level":"district","parent":150500},{"adcode":150522,"lng":122.355155,"lat":42.954564,"name":"科尔沁左翼后旗","level":"district","parent":150500},{"adcode":150523,"lng":121.308797,"lat":43.602432,"name":"开鲁县","level":"district","parent":150500},{"adcode":150524,"lng":121.774886,"lat":42.734692,"name":"库伦旗","level":"district","parent":150500},{"adcode":150525,"lng":120.662543,"lat":42.84685,"name":"奈曼旗","level":"district","parent":150500},{"adcode":150526,"lng":120.905275,"lat":44.555294,"name":"扎鲁特旗","level":"district","parent":150500},{"adcode":150581,"lng":119.657862,"lat":45.532361,"name":"霍林郭勒市","level":"district","parent":150500}],"total":8}