{"rows":[{"adcode":152201,"lng":122.068975,"lat":46.077238,"name":"乌兰浩特市","level":"district","parent":152200},{"adcode":152202,"lng":119.943656,"lat":47.177,"name":"阿尔山市","level":"district","parent":152200},{"adcode":152221,"lng":121.957544,"lat":46.076497,"name":"科尔沁右翼前旗","level":"district","parent":152200},{"adcode":152222,"lng":121.472818,"lat":45.059645,"name":"科尔沁右翼中旗","level":"district","parent":152200},{"adcode":152223,"lng":122.909332,"lat":46.725136,"name":"扎赉特旗","level":"district","parent":152200},{"adcode":152224,"lng":121.564856,"lat":45.380986,"name":"突泉县","level":"district","parent":152200}],"total":6}