{"rows":[{"adcode":"210403","people_count_2010":320949,"lat":41.866829,"lng":124.047219,"name":"东洲区","level":"district","parent":"抚顺市"},{"adcode":"210181","people_count_2010":657763,"lat":41.996508,"lng":122.828868,"name":"新民市","level":"district","parent":"沈阳市"},{"adcode":"210423","people_count_2010":290370,"lat":42.10135,"lng":124.927192,"name":"清原满族自治县","level":"district","parent":"抚顺市"},{"adcode":"210421","people_count_2010":162588,"lat":41.922644,"lng":124.097979,"name":"抚顺县","level":"district","parent":"抚顺市"},{"adcode":"210113","people_count_2010":null,"lat":42.052312,"lng":123.521471,"name":"沈北新区","level":"district","parent":"沈阳市"},{"adcode":"210681","people_count_2010":627475,"lat":39.883467,"lng":124.149437,"name":"东港市","level":"district","parent":"丹东市"},{"adcode":"211103","people_count_2010":468080,"lat":41.122423,"lng":122.071624,"name":"兴隆台区","level":"district","parent":"盘锦市"},{"adcode":"210881","people_count_2010":691595,"lat":40.405234,"lng":122.355534,"name":"盖州市","level":"district","parent":"营口市"},{"adcode":"210726","people_count_2010":615085,"lat":41.691804,"lng":122.117915,"name":"黑山县","level":"district","parent":"锦州市"},{"adcode":"210521","people_count_2010":296218,"lat":41.300344,"lng":124.126156,"name":"本溪满族自治县","level":"district","parent":"本溪市"},{"adcode":"210522","people_count_2010":319026,"lat":41.268997,"lng":125.359195,"name":"桓仁满族自治县","level":"district","parent":"本溪市"},{"adcode":"210281","people_count_2010":942197,"lat":39.63065,"lng":122.002656,"name":"瓦房店市","level":"district","parent":"大连市"},{"adcode":"210213","people_count_2010":1100000,"lat":39.052745,"lng":121.789413,"name":"金州区","level":"district","parent":"大连市"},{"adcode":"210283","people_count_2010":841321,"lat":39.69829,"lng":122.970612,"name":"庄河市","level":"district","parent":"大连市"},{"adcode":"210503","people_count_2010":252671,"lat":41.330056,"lng":123.765226,"name":"溪湖区","level":"district","parent":"本溪市"},{"adcode":"210402","people_count_2010":252631,"lat":41.86082,"lng":123.902858,"name":"新抚区","level":"district","parent":"抚顺市"},{"adcode":"210203","people_count_2010":305742,"lat":38.914266,"lng":121.616112,"name":"西岗区","level":"district","parent":"大连市"},{"adcode":"210782","people_count_2010":514898,"lat":41.598764,"lng":121.795962,"name":"北镇市","level":"district","parent":"锦州市"},{"adcode":"211402","people_count_2010":605186,"lat":40.755143,"lng":120.85937,"name":"连山区","level":"district","parent":"葫芦岛市"},{"adcode":"211303","people_count_2010":211102,"lat":41.576749,"lng":120.413376,"name":"龙城区","level":"district","parent":"朝阳市"},{"adcode":"210103","people_count_2010":849267,"lat":41.795591,"lng":123.445696,"name":"沈河区","level":"district","parent":"沈阳市"},{"adcode":"210921","people_count_2010":664971,"lat":42.058607,"lng":121.743125,"name":"阜新蒙古族自治县","level":"district","parent":"阜新市"},{"adcode":"210105","people_count_2010":925176,"lat":41.822336,"lng":123.405677,"name":"皇姑区","level":"district","parent":"沈阳市"},{"adcode":"210112","people_count_2010":1300000,"lat":41.741946,"lng":123.458981,"name":"浑南区","level":"district","parent":"沈阳市"},{"adcode":"210781","people_count_2010":508079,"lat":41.171738,"lng":121.364236,"name":"凌海市","level":"district","parent":"锦州市"},{"adcode":"210903","people_count_2010":81816,"lat":42.086603,"lng":121.790541,"name":"新邱区","level":"district","parent":"阜新市"},{"adcode":"210702","people_count_2010":287599,"lat":41.115719,"lng":121.130085,"name":"古塔区","level":"district","parent":"锦州市"},{"adcode":"210224","people_count_2010":77951,"lat":39.272399,"lng":122.587824,"name":"长海县","level":"district","parent":"大连市"},{"adcode":"210282","people_count_2010":741230,"lat":39.401555,"lng":121.9705,"name":"普兰店市","level":"district","parent":"大连市"},{"adcode":"210911","people_count_2010":211288,"lat":42.019218,"lng":121.654791,"name":"细河区","level":"district","parent":"阜新市"},{"adcode":"210922","people_count_2010":363712,"lat":42.384823,"lng":122.537444,"name":"彰武县","level":"district","parent":"阜新市"},{"adcode":"211381","people_count_2010":496164,"lat":41.803286,"lng":120.766951,"name":"北票市","level":"district","parent":"朝阳市"},{"adcode":"210905","people_count_2010":60751,"lat":41.780477,"lng":121.42018,"name":"清河门区","level":"district","parent":"阜新市"},{"adcode":"210711","people_count_2010":394594,"lat":41.105378,"lng":121.107297,"name":"太和区","level":"district","parent":"锦州市"},{"adcode":"211202","people_count_2010":363076,"lat":42.292278,"lng":123.844877,"name":"银州区","level":"district","parent":"铁岭市"},{"adcode":"211302","people_count_2010":414085,"lat":41.579389,"lng":120.44877,"name":"双塔区","level":"district","parent":"朝阳市"},{"adcode":"210106","people_count_2010":278741,"lat":41.787808,"lng":123.350664,"name":"铁西区","level":"district","parent":"沈阳市"},{"adcode":"210122","people_count_2010":476081,"lat":41.512725,"lng":122.731269,"name":"辽中县","level":"district","parent":"沈阳市"},{"adcode":"210104","people_count_2010":782867,"lat":41.808503,"lng":123.469956,"name":"大东区","level":"district","parent":"沈阳市"},{"adcode":"211481","people_count_2010":546176,"lat":40.619413,"lng":120.729365,"name":"兴城市","level":"district","parent":"葫芦岛市"},{"adcode":"211382","people_count_2010":570660,"lat":41.243086,"lng":119.404789,"name":"凌源市","level":"district","parent":"朝阳市"},{"adcode":"210703","people_count_2010":409606,"lat":41.114662,"lng":121.151304,"name":"凌河区","level":"district","parent":"锦州市"},{"adcode":"211404","people_count_2010":120969,"lat":41.098813,"lng":120.752314,"name":"南票区","level":"district","parent":"葫芦岛市"},{"adcode":"210411","people_count_2010":472920,"lat":41.881132,"lng":123.917165,"name":"顺城区","level":"district","parent":"抚顺市"},{"adcode":"210204","people_count_2010":693140,"lat":38.912859,"lng":121.593702,"name":"沙河口区","level":"district","parent":"大连市"},{"adcode":"210202","people_count_2010":339527,"lat":38.921553,"lng":121.64376,"name":"中山区","level":"district","parent":"大连市"},{"adcode":"210303","people_count_2010":null,"lat":41.11069,"lng":122.971834,"name":"铁西区","level":"district","parent":"鞍山市"},{"adcode":"211321","people_count_2010":486774,"lat":41.526342,"lng":120.404217,"name":"朝阳县","level":"district","parent":"朝阳市"},{"adcode":"211121","people_count_2010":430913,"lat":40.994428,"lng":122.071708,"name":"大洼县","level":"district","parent":"盘锦市"},{"adcode":"211003","people_count_2010":193414,"lat":41.266765,"lng":123.188227,"name":"文圣区","level":"district","parent":"辽阳市"},{"adcode":"211021","people_count_2010":573509,"lat":41.216479,"lng":123.079674,"name":"辽阳县","level":"district","parent":"辽阳市"},{"adcode":"211102","people_count_2010":208384,"lat":41.190365,"lng":122.055733,"name":"双台子区","level":"district","parent":"盘锦市"},{"adcode":"210802","people_count_2010":310634,"lat":40.669949,"lng":122.253235,"name":"站前区","level":"district","parent":"营口市"},{"adcode":"211122","people_count_2010":285116,"lat":41.240701,"lng":121.98528,"name":"盘山县","level":"district","parent":"盘锦市"},{"adcode":"210604","people_count_2010":183328,"lat":40.158557,"lng":124.427709,"name":"振安区","level":"district","parent":"丹东市"},{"adcode":"211005","people_count_2010":90785,"lat":41.157831,"lng":123.431633,"name":"弓长岭区","level":"district","parent":"辽阳市"},{"adcode":"210404","people_count_2010":384514,"lat":41.851803,"lng":123.801509,"name":"望花区","level":"district","parent":"抚顺市"},{"adcode":"210422","people_count_2010":254118,"lat":41.732456,"lng":125.037547,"name":"新宾满族自治县","level":"district","parent":"抚顺市"},{"adcode":"210304","people_count_2010":437339,"lat":41.150622,"lng":123.024806,"name":"立山区","level":"district","parent":"鞍山市"},{"adcode":"211282","people_count_2010":545624,"lat":42.542141,"lng":124.045551,"name":"开原市","level":"district","parent":"铁岭市"},{"adcode":"211004","people_count_2010":142734,"lat":41.205747,"lng":123.200461,"name":"宏伟区","level":"district","parent":"辽阳市"},{"adcode":"211081","people_count_2010":496122,"lat":41.427836,"lng":123.325864,"name":"灯塔市","level":"district","parent":"辽阳市"},{"adcode":"210882","people_count_2010":704891,"lat":40.633973,"lng":122.505894,"name":"大石桥市","level":"district","parent":"营口市"},{"adcode":"211204","people_count_2010":530012,"lat":42.542978,"lng":124.14896,"name":"清河区","level":"district","parent":"铁岭市"},{"adcode":"211421","people_count_2010":586620,"lat":40.328407,"lng":120.342112,"name":"绥中县","level":"district","parent":"葫芦岛市"},{"adcode":"211422","people_count_2010":520537,"lat":40.812871,"lng":119.807776,"name":"建昌县","level":"district","parent":"葫芦岛市"},{"adcode":"211322","people_count_2010":505437,"lat":41.402576,"lng":119.642363,"name":"建平县","level":"district","parent":"朝阳市"},{"adcode":"210682","people_count_2010":543933,"lat":40.457567,"lng":124.071067,"name":"凤城市","level":"district","parent":"丹东市"},{"adcode":"210502","people_count_2010":349130,"lat":41.291581,"lng":123.761231,"name":"平山区","level":"district","parent":"本溪市"},{"adcode":"210321","people_count_2010":1300000,"lat":41.38686,"lng":122.429736,"name":"台安县","level":"district","parent":"鞍山市"},{"adcode":"210504","people_count_2010":409576,"lat":41.302429,"lng":123.763288,"name":"明山区","level":"district","parent":"本溪市"},{"adcode":"211011","people_count_2010":137852,"lat":41.251682,"lng":123.185336,"name":"太子河区","level":"district","parent":"辽阳市"},{"adcode":"211324","people_count_2010":360419,"lat":41.125428,"lng":119.744883,"name":"喀喇沁左翼蒙古族自治县","level":"district","parent":"朝阳市"},{"adcode":"211221","people_count_2010":339045,"lat":42.223316,"lng":123.725669,"name":"铁岭县","level":"district","parent":"铁岭市"},{"adcode":"211224","people_count_2010":847924,"lat":42.784441,"lng":124.11017,"name":"昌图县","level":"district","parent":"铁岭市"},{"adcode":"211223","people_count_2010":290635,"lat":42.738091,"lng":124.72332,"name":"西丰县","level":"district","parent":"铁岭市"},{"adcode":"211281","people_count_2010":241431,"lat":42.450734,"lng":123.545366,"name":"调兵山市","level":"district","parent":"铁岭市"},{"adcode":"210123","people_count_2010":316819,"lat":42.741533,"lng":123.352703,"name":"康平县","level":"district","parent":"沈阳市"},{"adcode":"210311","people_count_2010":275447,"lat":41.068909,"lng":122.949298,"name":"千山区","level":"district","parent":"鞍山市"},{"adcode":"210505","people_count_2010":82917,"lat":41.104093,"lng":123.748381,"name":"南芬区","level":"district","parent":"本溪市"},{"adcode":"210727","people_count_2010":396602,"lat":41.537224,"lng":121.242831,"name":"义县","level":"district","parent":"锦州市"},{"adcode":"210902","people_count_2010":231046,"lat":42.011162,"lng":121.657639,"name":"海州区","level":"district","parent":"阜新市"},{"adcode":"210804","people_count_2010":431087,"lat":40.263646,"lng":122.127242,"name":"鲅鱼圈区","level":"district","parent":"营口市"},{"adcode":"211403","people_count_2010":244053,"lat":40.709991,"lng":120.838569,"name":"龙港区","level":"district","parent":"葫芦岛市"},{"adcode":"210124","people_count_2010":399587,"lat":42.507045,"lng":123.416722,"name":"法库县","level":"district","parent":"沈阳市"},{"adcode":"210111","people_count_2010":474779,"lat":41.665904,"lng":123.341604,"name":"苏家屯区","level":"district","parent":"沈阳市"},{"adcode":"210302","people_count_2010":334884,"lat":41.110344,"lng":122.994475,"name":"铁东区","level":"district","parent":"鞍山市"},{"adcode":"210624","people_count_2010":407713,"lat":40.730412,"lng":124.784867,"name":"宽甸满族自治县","level":"district","parent":"丹东市"},{"adcode":"210602","people_count_2010":215905,"lat":40.136483,"lng":124.397814,"name":"元宝区","level":"district","parent":"丹东市"},{"adcode":"210603","people_count_2010":466343,"lat":40.102801,"lng":124.361153,"name":"振兴区","level":"district","parent":"丹东市"},{"adcode":"210904","people_count_2010":166044,"lat":42.011145,"lng":121.677575,"name":"太平区","level":"district","parent":"阜新市"},{"adcode":"210811","people_count_2010":125454,"lat":40.682723,"lng":122.382584,"name":"老边区","level":"district","parent":"营口市"},{"adcode":"210114","people_count_2010":670843,"lat":41.795833,"lng":123.310829,"name":"于洪区","level":"district","parent":"沈阳市"},{"adcode":"210803","people_count_2010":164873,"lat":40.663086,"lng":122.210067,"name":"西市区","level":"district","parent":"营口市"},{"adcode":"210102","people_count_2010":null,"lat":41.788074,"lng":123.406664,"name":"和平区","level":"district","parent":"沈阳市"},{"adcode":"210212","people_count_2010":324773,"lat":38.812043,"lng":121.26713,"name":"旅顺口区","level":"district","parent":"大连市"},{"adcode":"210211","people_count_2010":1300000,"lat":38.975148,"lng":121.582614,"name":"甘井子区","level":"district","parent":"大连市"},{"adcode":"210323","people_count_2010":null,"lat":40.281509,"lng":123.28833,"name":"岫岩满族自治县","level":"district","parent":"鞍山市"},{"adcode":"210381","people_count_2010":1300000,"lat":40.852533,"lng":122.752199,"name":"海城市","level":"district","parent":"鞍山市"},{"adcode":"211002","people_count_2010":224352,"lat":41.26745,"lng":123.172611,"name":"白塔区","level":"district","parent":"辽阳市"}],"total":100}