{"rows":[{"adcode":210302,"lng":122.994475,"lat":41.110344,"name":"铁东区","level":"district","parent":210300},{"adcode":210303,"lng":122.971834,"lat":41.11069,"name":"铁西区","level":"district","parent":210300},{"adcode":210304,"lng":123.024806,"lat":41.150622,"name":"立山区","level":"district","parent":210300},{"adcode":210311,"lng":122.949298,"lat":41.068909,"name":"千山区","level":"district","parent":210300},{"adcode":210321,"lng":122.429736,"lat":41.38686,"name":"台安县","level":"district","parent":210300},{"adcode":210323,"lng":123.28833,"lat":40.281509,"name":"岫岩满族自治县","level":"district","parent":210300},{"adcode":210381,"lng":122.752199,"lat":40.852533,"name":"海城市","level":"district","parent":210300}],"total":7}