{"rows":[{"adcode":210402,"lng":123.902858,"lat":41.86082,"name":"新抚区","level":"district","parent":210400},{"adcode":210403,"lng":124.047219,"lat":41.866829,"name":"东洲区","level":"district","parent":210400},{"adcode":210404,"lng":123.801509,"lat":41.851803,"name":"望花区","level":"district","parent":210400},{"adcode":210411,"lng":123.917165,"lat":41.881132,"name":"顺城区","level":"district","parent":210400},{"adcode":210421,"lng":124.097979,"lat":41.922644,"name":"抚顺县","level":"district","parent":210400},{"adcode":210422,"lng":125.037547,"lat":41.732456,"name":"新宾满族自治县","level":"district","parent":210400},{"adcode":210423,"lng":124.927192,"lat":42.10135,"name":"清原满族自治县","level":"district","parent":210400}],"total":7}