{"rows":[{"adcode":220102,"lng":125.337237,"lat":43.890235,"name":"南关区","level":"district","parent":220100},{"adcode":220103,"lng":125.342828,"lat":43.903823,"name":"宽城区","level":"district","parent":220100},{"adcode":220104,"lng":125.318042,"lat":43.86491,"name":"朝阳区","level":"district","parent":220100},{"adcode":220105,"lng":125.384727,"lat":43.870824,"name":"二道区","level":"district","parent":220100},{"adcode":220106,"lng":125.272467,"lat":43.892177,"name":"绿园区","level":"district","parent":220100},{"adcode":220112,"lng":125.659018,"lat":43.525168,"name":"双阳区","level":"district","parent":220100},{"adcode":220113,"lng":125.844682,"lat":44.157155,"name":"九台区","level":"district","parent":220100},{"adcode":220122,"lng":125.175287,"lat":44.431258,"name":"农安县","level":"district","parent":220100},{"adcode":220182,"lng":126.550107,"lat":44.827642,"name":"榆树市","level":"district","parent":220100},{"adcode":220183,"lng":125.703327,"lat":44.533909,"name":"德惠市","level":"district","parent":220100}],"total":10}