{"rows":[{"adcode":220702,"lng":124.827851,"lat":45.176498,"name":"宁江区","level":"district","parent":220700},{"adcode":220721,"lng":124.826808,"lat":45.116288,"name":"前郭尔罗斯蒙古族自治县","level":"district","parent":220700},{"adcode":220722,"lng":123.985184,"lat":44.276579,"name":"长岭县","level":"district","parent":220700},{"adcode":220723,"lng":124.024361,"lat":45.006846,"name":"乾安县","level":"district","parent":220700},{"adcode":220781,"lng":126.042758,"lat":44.986199,"name":"扶余市","level":"district","parent":220700}],"total":5}