{"rows":[{"adcode":230100,"lng":126.642464,"lat":45.756967,"name":"哈尔滨市","level":"city","parent":230000},{"adcode":230200,"lng":123.95792,"lat":47.342081,"name":"齐齐哈尔市","level":"city","parent":230000},{"adcode":230300,"lng":130.975966,"lat":45.300046,"name":"鸡西市","level":"city","parent":230000},{"adcode":230400,"lng":130.277487,"lat":47.332085,"name":"鹤岗市","level":"city","parent":230000},{"adcode":230500,"lng":131.157304,"lat":46.643442,"name":"双鸭山市","level":"city","parent":230000},{"adcode":230600,"lng":125.11272,"lat":46.590734,"name":"大庆市","level":"city","parent":230000},{"adcode":230700,"lng":128.899396,"lat":47.724775,"name":"伊春市","level":"city","parent":230000},{"adcode":230800,"lng":130.361634,"lat":46.809606,"name":"佳木斯市","level":"city","parent":230000},{"adcode":230900,"lng":131.015584,"lat":45.771266,"name":"七台河市","level":"city","parent":230000},{"adcode":231000,"lng":129.618602,"lat":44.582962,"name":"牡丹江市","level":"city","parent":230000},{"adcode":231100,"lng":127.499023,"lat":50.249585,"name":"黑河市","level":"city","parent":230000},{"adcode":231200,"lng":126.99293,"lat":46.637393,"name":"绥化市","level":"city","parent":230000},{"adcode":232700,"lng":124.711526,"lat":52.335262,"name":"大兴安岭地区","level":"city","parent":230000}],"total":13}