{"rows":[{"adcode":230402,"lng":130.292478,"lat":47.345372,"name":"向阳区","level":"district","parent":230400},{"adcode":230403,"lng":130.276652,"lat":47.331678,"name":"工农区","level":"district","parent":230400},{"adcode":230404,"lng":130.275533,"lat":47.31324,"name":"南山区","level":"district","parent":230400},{"adcode":230405,"lng":130.236169,"lat":47.252911,"name":"兴安区","level":"district","parent":230400},{"adcode":230406,"lng":130.31714,"lat":47.337385,"name":"东山区","level":"district","parent":230400},{"adcode":230407,"lng":130.30534,"lat":47.35997,"name":"兴山区","level":"district","parent":230400},{"adcode":230421,"lng":130.829087,"lat":47.577577,"name":"萝北县","level":"district","parent":230400},{"adcode":230422,"lng":131.860526,"lat":47.289892,"name":"绥滨县","level":"district","parent":230400}],"total":8}