{"rows":[{"adcode":230502,"lng":131.15896,"lat":46.642961,"name":"尖山区","level":"district","parent":230500},{"adcode":230503,"lng":131.163675,"lat":46.591076,"name":"岭东区","level":"district","parent":230500},{"adcode":230505,"lng":131.333181,"lat":46.594347,"name":"四方台区","level":"district","parent":230500},{"adcode":230506,"lng":131.404294,"lat":46.573366,"name":"宝山区","level":"district","parent":230500},{"adcode":230521,"lng":131.13933,"lat":46.72898,"name":"集贤县","level":"district","parent":230500},{"adcode":230522,"lng":131.810622,"lat":46.775159,"name":"友谊县","level":"district","parent":230500},{"adcode":230523,"lng":132.206415,"lat":46.328781,"name":"宝清县","level":"district","parent":230500},{"adcode":230524,"lng":134.021162,"lat":46.801288,"name":"饶河县","level":"district","parent":230500}],"total":8}