{"rows":[{"adcode":230602,"lng":125.114643,"lat":46.596356,"name":"萨尔图区","level":"district","parent":230600},{"adcode":230603,"lng":125.145794,"lat":46.573948,"name":"龙凤区","level":"district","parent":230600},{"adcode":230604,"lng":124.868341,"lat":46.653254,"name":"让胡路区","level":"district","parent":230600},{"adcode":230605,"lng":124.889528,"lat":46.403049,"name":"红岗区","level":"district","parent":230600},{"adcode":230606,"lng":124.818509,"lat":46.034304,"name":"大同区","level":"district","parent":230600},{"adcode":230621,"lng":125.273254,"lat":45.708685,"name":"肇州县","level":"district","parent":230600},{"adcode":230622,"lng":125.081974,"lat":45.518832,"name":"肇源县","level":"district","parent":230600},{"adcode":230623,"lng":124.877742,"lat":47.186411,"name":"林甸县","level":"district","parent":230600},{"adcode":230624,"lng":124.446259,"lat":46.865973,"name":"杜尔伯特蒙古族自治县","level":"district","parent":230600}],"total":9}