{"rows":[{"adcode":231102,"lng":127.497639,"lat":50.249027,"name":"爱辉区","level":"district","parent":231100},{"adcode":231121,"lng":125.229904,"lat":49.177461,"name":"嫩江市","level":"district","parent":231100},{"adcode":231123,"lng":128.476152,"lat":49.582974,"name":"逊克县","level":"district","parent":231100},{"adcode":231124,"lng":127.327315,"lat":49.423941,"name":"孙吴县","level":"district","parent":231100},{"adcode":231181,"lng":126.508737,"lat":48.245437,"name":"北安市","level":"district","parent":231100},{"adcode":231182,"lng":126.197694,"lat":48.512688,"name":"五大连池市","level":"district","parent":231100}],"total":6}