{"rows":[{"adcode":231202,"lng":126.990665,"lat":46.634912,"name":"北林区","level":"district","parent":231200},{"adcode":231221,"lng":126.484191,"lat":46.83352,"name":"望奎县","level":"district","parent":231200},{"adcode":231222,"lng":126.289315,"lat":46.259037,"name":"兰西县","level":"district","parent":231200},{"adcode":231223,"lng":126.112268,"lat":46.686596,"name":"青冈县","level":"district","parent":231200},{"adcode":231224,"lng":127.510024,"lat":46.879203,"name":"庆安县","level":"district","parent":231200},{"adcode":231225,"lng":125.907544,"lat":47.183527,"name":"明水县","level":"district","parent":231200},{"adcode":231226,"lng":127.111121,"lat":47.247195,"name":"绥棱县","level":"district","parent":231200},{"adcode":231281,"lng":125.329926,"lat":46.410614,"name":"安达市","level":"district","parent":231200},{"adcode":231282,"lng":125.991402,"lat":46.069471,"name":"肇东市","level":"district","parent":231200},{"adcode":231283,"lng":126.969383,"lat":47.460428,"name":"海伦市","level":"district","parent":231200}],"total":10}