{"rows":[{"adcode":320602,"lng":120.86635,"lat":32.015278,"name":"崇川区","level":"district","parent":320600},{"adcode":320611,"lng":120.8339,"lat":32.040299,"name":"港闸区","level":"district","parent":320600},{"adcode":320612,"lng":121.073171,"lat":32.084287,"name":"通州区","level":"district","parent":320600},{"adcode":320623,"lng":121.186088,"lat":32.311832,"name":"如东县","level":"district","parent":320600},{"adcode":320681,"lng":121.659724,"lat":31.810158,"name":"启东市","level":"district","parent":320600},{"adcode":320682,"lng":120.566324,"lat":32.391591,"name":"如皋市","level":"district","parent":320600},{"adcode":320684,"lng":121.176609,"lat":31.893528,"name":"海门市","level":"district","parent":320600},{"adcode":320685,"lng":120.465995,"lat":32.540289,"name":"海安市","level":"district","parent":320600}],"total":8}