{"rows":[{"adcode":321002,"lng":119.442267,"lat":32.392154,"name":"广陵区","level":"district","parent":321000},{"adcode":321003,"lng":119.397777,"lat":32.377899,"name":"邗江区","level":"district","parent":321000},{"adcode":321012,"lng":119.567481,"lat":32.426564,"name":"江都区","level":"district","parent":321000},{"adcode":321023,"lng":119.321284,"lat":33.23694,"name":"宝应县","level":"district","parent":321000},{"adcode":321081,"lng":119.182443,"lat":32.271965,"name":"仪征市","level":"district","parent":321000},{"adcode":321084,"lng":119.443842,"lat":32.785164,"name":"高邮市","level":"district","parent":321000}],"total":6}