{"rows":[{"adcode":330100,"lng":120.153576,"lat":30.287459,"name":"杭州市","level":"city","parent":330000},{"adcode":330200,"lng":121.549792,"lat":29.868388,"name":"宁波市","level":"city","parent":330000},{"adcode":330300,"lng":120.672111,"lat":28.000575,"name":"温州市","level":"city","parent":330000},{"adcode":330400,"lng":120.750865,"lat":30.762653,"name":"嘉兴市","level":"city","parent":330000},{"adcode":330500,"lng":120.102398,"lat":30.867198,"name":"湖州市","level":"city","parent":330000},{"adcode":330600,"lng":120.582112,"lat":29.997117,"name":"绍兴市","level":"city","parent":330000},{"adcode":330700,"lng":119.649506,"lat":29.089524,"name":"金华市","level":"city","parent":330000},{"adcode":330800,"lng":118.87263,"lat":28.941708,"name":"衢州市","level":"city","parent":330000},{"adcode":330900,"lng":122.106863,"lat":30.016028,"name":"舟山市","level":"city","parent":330000},{"adcode":331000,"lng":121.428599,"lat":28.661378,"name":"台州市","level":"city","parent":330000},{"adcode":331100,"lng":119.921786,"lat":28.451993,"name":"丽水市","level":"city","parent":330000}],"total":11}