{"rows":[{"adcode":330102,"lng":120.171465,"lat":30.250236,"name":"上城区","level":"district","parent":330100},{"adcode":330103,"lng":120.172763,"lat":30.276271,"name":"下城区","level":"district","parent":330100},{"adcode":330104,"lng":120.202633,"lat":30.266603,"name":"江干区","level":"district","parent":330100},{"adcode":330105,"lng":120.150053,"lat":30.314697,"name":"拱墅区","level":"district","parent":330100},{"adcode":330106,"lng":120.147376,"lat":30.272934,"name":"西湖区","level":"district","parent":330100},{"adcode":330108,"lng":120.21062,"lat":30.206615,"name":"滨江区","level":"district","parent":330100},{"adcode":330109,"lng":120.27069,"lat":30.162932,"name":"萧山区","level":"district","parent":330100},{"adcode":330110,"lng":120.301737,"lat":30.421187,"name":"余杭区","level":"district","parent":330100},{"adcode":330111,"lng":119.949869,"lat":30.049871,"name":"富阳区","level":"district","parent":330100},{"adcode":330112,"lng":119.715101,"lat":30.231153,"name":"临安区","level":"district","parent":330100},{"adcode":330122,"lng":119.685045,"lat":29.797437,"name":"桐庐县","level":"district","parent":330100},{"adcode":330127,"lng":119.044276,"lat":29.604177,"name":"淳安县","level":"district","parent":330100},{"adcode":330182,"lng":119.279089,"lat":29.472284,"name":"建德市","level":"district","parent":330100}],"total":13}