{"rows":[{"adcode":330702,"lng":119.652579,"lat":29.082607,"name":"婺城区","level":"district","parent":330700},{"adcode":330703,"lng":119.681264,"lat":29.095835,"name":"金东区","level":"district","parent":330700},{"adcode":330723,"lng":119.819159,"lat":28.896563,"name":"武义县","level":"district","parent":330700},{"adcode":330726,"lng":119.893363,"lat":29.451254,"name":"浦江县","level":"district","parent":330700},{"adcode":330727,"lng":120.44513,"lat":29.052627,"name":"磐安县","level":"district","parent":330700},{"adcode":330781,"lng":119.460521,"lat":29.210065,"name":"兰溪市","level":"district","parent":330700},{"adcode":330782,"lng":120.074911,"lat":29.306863,"name":"义乌市","level":"district","parent":330700},{"adcode":330783,"lng":120.23334,"lat":29.262546,"name":"东阳市","level":"district","parent":330700},{"adcode":330784,"lng":120.036328,"lat":28.895293,"name":"永康市","level":"district","parent":330700}],"total":9}