{"rows":[{"adcode":331002,"lng":121.431049,"lat":28.67615,"name":"椒江区","level":"district","parent":331000},{"adcode":331003,"lng":121.262138,"lat":28.64488,"name":"黄岩区","level":"district","parent":331000},{"adcode":331004,"lng":121.37292,"lat":28.581799,"name":"路桥区","level":"district","parent":331000},{"adcode":331022,"lng":121.376429,"lat":29.118955,"name":"三门县","level":"district","parent":331000},{"adcode":331023,"lng":121.031227,"lat":29.141126,"name":"天台县","level":"district","parent":331000},{"adcode":331024,"lng":120.735074,"lat":28.849213,"name":"仙居县","level":"district","parent":331000},{"adcode":331081,"lng":121.373611,"lat":28.368781,"name":"温岭市","level":"district","parent":331000},{"adcode":331082,"lng":121.131229,"lat":28.845441,"name":"临海市","level":"district","parent":331000},{"adcode":331083,"lng":121.232337,"lat":28.12842,"name":"玉环市","level":"district","parent":331000}],"total":9}