{"rows":[{"adcode":340102,"lng":117.315358,"lat":31.86961,"name":"瑶海区","level":"district","parent":340100},{"adcode":340103,"lng":117.283776,"lat":31.869011,"name":"庐阳区","level":"district","parent":340100},{"adcode":340104,"lng":117.262072,"lat":31.855868,"name":"蜀山区","level":"district","parent":340100},{"adcode":340111,"lng":117.285751,"lat":31.82956,"name":"包河区","level":"district","parent":340100},{"adcode":340121,"lng":117.164699,"lat":32.478548,"name":"长丰县","level":"district","parent":340100},{"adcode":340122,"lng":117.463222,"lat":31.883992,"name":"肥东县","level":"district","parent":340100},{"adcode":340123,"lng":117.166118,"lat":31.719646,"name":"肥西县","level":"district","parent":340100},{"adcode":340124,"lng":117.289844,"lat":31.251488,"name":"庐江县","level":"district","parent":340100},{"adcode":340181,"lng":117.874155,"lat":31.600518,"name":"巢湖市","level":"district","parent":340100}],"total":9}