{"rows":[{"adcode":340802,"lng":117.044965,"lat":30.506375,"name":"迎江区","level":"district","parent":340800},{"adcode":340803,"lng":117.034512,"lat":30.505632,"name":"大观区","level":"district","parent":340800},{"adcode":340811,"lng":117.070003,"lat":30.541323,"name":"宜秀区","level":"district","parent":340800},{"adcode":340822,"lng":116.828664,"lat":30.734994,"name":"怀宁县","level":"district","parent":340800},{"adcode":340825,"lng":116.305225,"lat":30.451869,"name":"太湖县","level":"district","parent":340800},{"adcode":340826,"lng":116.120204,"lat":30.158327,"name":"宿松县","level":"district","parent":340800},{"adcode":340827,"lng":116.690927,"lat":30.12491,"name":"望江县","level":"district","parent":340800},{"adcode":340828,"lng":116.360482,"lat":30.848502,"name":"岳西县","level":"district","parent":340800},{"adcode":340881,"lng":116.959656,"lat":31.050576,"name":"桐城市","level":"district","parent":340800},{"adcode":340882,"lng":116.573666,"lat":30.638222,"name":"潜山市","level":"district","parent":340800}],"total":10}