{"rows":[{"adcode":341002,"lng":118.317354,"lat":29.709186,"name":"屯溪区","level":"district","parent":341000},{"adcode":341003,"lng":118.136639,"lat":30.294517,"name":"黄山区","level":"district","parent":341000},{"adcode":341004,"lng":118.339743,"lat":29.825201,"name":"徽州区","level":"district","parent":341000},{"adcode":341021,"lng":118.428025,"lat":29.867748,"name":"歙县","level":"district","parent":341000},{"adcode":341022,"lng":118.188531,"lat":29.788878,"name":"休宁县","level":"district","parent":341000},{"adcode":341023,"lng":117.942911,"lat":29.923812,"name":"黟县","level":"district","parent":341000},{"adcode":341024,"lng":117.717237,"lat":29.853472,"name":"祁门县","level":"district","parent":341000}],"total":7}