{"rows":[{"adcode":341502,"lng":116.503288,"lat":31.754491,"name":"金安区","level":"district","parent":341500},{"adcode":341503,"lng":116.494543,"lat":31.750692,"name":"裕安区","level":"district","parent":341500},{"adcode":341504,"lng":115.913594,"lat":31.84768,"name":"叶集区","level":"district","parent":341500},{"adcode":341522,"lng":116.278875,"lat":32.341305,"name":"霍邱县","level":"district","parent":341500},{"adcode":341523,"lng":116.944088,"lat":31.462848,"name":"舒城县","level":"district","parent":341500},{"adcode":341524,"lng":115.878514,"lat":31.681624,"name":"金寨县","level":"district","parent":341500},{"adcode":341525,"lng":116.333078,"lat":31.402456,"name":"霍山县","level":"district","parent":341500}],"total":7}