{"rows":[{"adcode":350203,"lng":118.087828,"lat":24.462059,"name":"思明区","level":"district","parent":350200},{"adcode":350205,"lng":118.036364,"lat":24.492512,"name":"海沧区","level":"district","parent":350200},{"adcode":350206,"lng":118.10943,"lat":24.512764,"name":"湖里区","level":"district","parent":350200},{"adcode":350211,"lng":118.100869,"lat":24.572874,"name":"集美区","level":"district","parent":350200},{"adcode":350212,"lng":118.150455,"lat":24.729333,"name":"同安区","level":"district","parent":350200},{"adcode":350213,"lng":118.242811,"lat":24.637479,"name":"翔安区","level":"district","parent":350200}],"total":6}