{"rows":[{"adcode":350802,"lng":117.030721,"lat":25.0918,"name":"新罗区","level":"district","parent":350800},{"adcode":350803,"lng":116.732691,"lat":24.720442,"name":"永定区","level":"district","parent":350800},{"adcode":350821,"lng":116.361007,"lat":25.842278,"name":"长汀县","level":"district","parent":350800},{"adcode":350823,"lng":116.424774,"lat":25.050019,"name":"上杭县","level":"district","parent":350800},{"adcode":350824,"lng":116.100928,"lat":25.08865,"name":"武平县","level":"district","parent":350800},{"adcode":350825,"lng":116.756687,"lat":25.708506,"name":"连城县","level":"district","parent":350800},{"adcode":350881,"lng":117.42073,"lat":25.291597,"name":"漳平市","level":"district","parent":350800}],"total":7}