{"rows":[{"adcode":360100,"lng":115.892151,"lat":28.676493,"name":"南昌市","level":"city","parent":360000},{"adcode":360200,"lng":117.214664,"lat":29.29256,"name":"景德镇市","level":"city","parent":360000},{"adcode":360300,"lng":113.852186,"lat":27.622946,"name":"萍乡市","level":"city","parent":360000},{"adcode":360400,"lng":115.992811,"lat":29.712034,"name":"九江市","level":"city","parent":360000},{"adcode":360500,"lng":114.930835,"lat":27.810834,"name":"新余市","level":"city","parent":360000},{"adcode":360600,"lng":117.033838,"lat":28.238638,"name":"鹰潭市","level":"city","parent":360000},{"adcode":360700,"lng":114.940278,"lat":25.85097,"name":"赣州市","level":"city","parent":360000},{"adcode":360800,"lng":114.986373,"lat":27.111699,"name":"吉安市","level":"city","parent":360000},{"adcode":360900,"lng":114.391136,"lat":27.8043,"name":"宜春市","level":"city","parent":360000},{"adcode":361000,"lng":116.358351,"lat":27.98385,"name":"抚州市","level":"city","parent":360000},{"adcode":361100,"lng":117.971185,"lat":28.44442,"name":"上饶市","level":"city","parent":360000}],"total":11}