{"rows":[{"adcode":370202,"lng":120.395966,"lat":36.070892,"name":"市南区","level":"district","parent":370200},{"adcode":370203,"lng":120.355026,"lat":36.083819,"name":"市北区","level":"district","parent":370200},{"adcode":370211,"lng":119.995518,"lat":35.875138,"name":"黄岛区","level":"district","parent":370200},{"adcode":370212,"lng":120.467393,"lat":36.102569,"name":"崂山区","level":"district","parent":370200},{"adcode":370213,"lng":120.421236,"lat":36.160023,"name":"李沧区","level":"district","parent":370200},{"adcode":370214,"lng":120.389135,"lat":36.306833,"name":"城阳区","level":"district","parent":370200},{"adcode":370215,"lng":120.447352,"lat":36.390847,"name":"即墨区","level":"district","parent":370200},{"adcode":370281,"lng":120.006202,"lat":36.285878,"name":"胶州市","level":"district","parent":370200},{"adcode":370283,"lng":119.959012,"lat":36.788828,"name":"平度市","level":"district","parent":370200},{"adcode":370285,"lng":120.526226,"lat":36.86509,"name":"莱西市","level":"district","parent":370200}],"total":10}