{"rows":[{"adcode":410100,"lng":113.665412,"lat":34.757975,"name":"郑州市","level":"city","parent":410000},{"adcode":410200,"lng":114.341447,"lat":34.797049,"name":"开封市","level":"city","parent":410000},{"adcode":410300,"lng":112.434468,"lat":34.663041,"name":"洛阳市","level":"city","parent":410000},{"adcode":410400,"lng":113.307718,"lat":33.735241,"name":"平顶山市","level":"city","parent":410000},{"adcode":410500,"lng":114.352482,"lat":36.103442,"name":"安阳市","level":"city","parent":410000},{"adcode":410600,"lng":114.295444,"lat":35.748236,"name":"鹤壁市","level":"city","parent":410000},{"adcode":410700,"lng":113.883991,"lat":35.302616,"name":"新乡市","level":"city","parent":410000},{"adcode":410800,"lng":113.238266,"lat":35.23904,"name":"焦作市","level":"city","parent":410000},{"adcode":410900,"lng":115.041299,"lat":35.768234,"name":"濮阳市","level":"city","parent":410000},{"adcode":411000,"lng":113.826063,"lat":34.022956,"name":"许昌市","level":"city","parent":410000},{"adcode":411100,"lng":114.026405,"lat":33.575855,"name":"漯河市","level":"city","parent":410000},{"adcode":411200,"lng":111.194099,"lat":34.777338,"name":"三门峡市","level":"city","parent":410000},{"adcode":411300,"lng":112.540918,"lat":32.999082,"name":"南阳市","level":"city","parent":410000},{"adcode":411400,"lng":115.650497,"lat":34.437054,"name":"商丘市","level":"city","parent":410000},{"adcode":411500,"lng":114.075031,"lat":32.123274,"name":"信阳市","level":"city","parent":410000},{"adcode":411600,"lng":114.649653,"lat":33.620357,"name":"周口市","level":"city","parent":410000},{"adcode":411700,"lng":114.024736,"lat":32.980169,"name":"驻马店市","level":"city","parent":410000},{"adcode":419001,"lng":112.590047,"lat":35.090378,"name":"济源市","level":"city","parent":410000}],"total":18}