{"rows":[{"adcode":410102,"lng":113.611576,"lat":34.748286,"name":"中原区","level":"district","parent":410100},{"adcode":410103,"lng":113.645422,"lat":34.730936,"name":"二七区","level":"district","parent":410100},{"adcode":410104,"lng":113.685313,"lat":34.746453,"name":"管城回族区","level":"district","parent":410100},{"adcode":410105,"lng":113.686037,"lat":34.775838,"name":"金水区","level":"district","parent":410100},{"adcode":410106,"lng":113.298282,"lat":34.808689,"name":"上街区","level":"district","parent":410100},{"adcode":410108,"lng":113.61836,"lat":34.828591,"name":"惠济区","level":"district","parent":410100},{"adcode":410122,"lng":114.022521,"lat":34.721976,"name":"中牟县","level":"district","parent":410100},{"adcode":410181,"lng":112.98283,"lat":34.75218,"name":"巩义市","level":"district","parent":410100},{"adcode":410182,"lng":113.391523,"lat":34.789077,"name":"荥阳市","level":"district","parent":410100},{"adcode":410183,"lng":113.380616,"lat":34.537846,"name":"新密市","level":"district","parent":410100},{"adcode":410184,"lng":113.73967,"lat":34.394219,"name":"新郑市","level":"district","parent":410100},{"adcode":410185,"lng":113.037768,"lat":34.459939,"name":"登封市","level":"district","parent":410100}],"total":12}