{"rows":[{"adcode":410502,"lng":114.352562,"lat":36.098101,"name":"文峰区","level":"district","parent":410500},{"adcode":410503,"lng":114.352646,"lat":36.10978,"name":"北关区","level":"district","parent":410500},{"adcode":410505,"lng":114.300098,"lat":36.108974,"name":"殷都区","level":"district","parent":410500},{"adcode":410506,"lng":114.323522,"lat":36.095568,"name":"龙安区","level":"district","parent":410500},{"adcode":410522,"lng":114.130207,"lat":36.130585,"name":"安阳县","level":"district","parent":410500},{"adcode":410523,"lng":114.362357,"lat":35.922349,"name":"汤阴县","level":"district","parent":410500},{"adcode":410526,"lng":114.524,"lat":35.574628,"name":"滑县","level":"district","parent":410500},{"adcode":410527,"lng":114.904582,"lat":35.953702,"name":"内黄县","level":"district","parent":410500},{"adcode":410581,"lng":113.823767,"lat":36.063403,"name":"林州市","level":"district","parent":410500}],"total":9}