{"rows":[{"adcode":410802,"lng":113.226126,"lat":35.241353,"name":"解放区","level":"district","parent":410800},{"adcode":410803,"lng":113.175485,"lat":35.236145,"name":"中站区","level":"district","parent":410800},{"adcode":410804,"lng":113.321703,"lat":35.265453,"name":"马村区","level":"district","parent":410800},{"adcode":410811,"lng":113.26766,"lat":35.21476,"name":"山阳区","level":"district","parent":410800},{"adcode":410821,"lng":113.447465,"lat":35.229923,"name":"修武县","level":"district","parent":410800},{"adcode":410822,"lng":113.069313,"lat":35.170351,"name":"博爱县","level":"district","parent":410800},{"adcode":410823,"lng":113.408334,"lat":35.09885,"name":"武陟县","level":"district","parent":410800},{"adcode":410825,"lng":113.079118,"lat":34.941233,"name":"温县","level":"district","parent":410800},{"adcode":410882,"lng":112.934538,"lat":35.08901,"name":"沁阳市","level":"district","parent":410800},{"adcode":410883,"lng":112.78708,"lat":34.90963,"name":"孟州市","level":"district","parent":410800}],"total":10}