{"rows":[{"adcode":410902,"lng":115.03184,"lat":35.760473,"name":"华龙区","level":"district","parent":410900},{"adcode":410922,"lng":115.107287,"lat":35.902413,"name":"清丰县","level":"district","parent":410900},{"adcode":410923,"lng":115.204336,"lat":36.075204,"name":"南乐县","level":"district","parent":410900},{"adcode":410926,"lng":115.504212,"lat":35.851977,"name":"范县","level":"district","parent":410900},{"adcode":410927,"lng":115.855681,"lat":35.996474,"name":"台前县","level":"district","parent":410900},{"adcode":410928,"lng":115.023844,"lat":35.710349,"name":"濮阳县","level":"district","parent":410900}],"total":6}