{"rows":[{"adcode":411002,"lng":113.828307,"lat":34.02711,"name":"魏都区","level":"district","parent":411000},{"adcode":411003,"lng":113.842898,"lat":34.005018,"name":"建安区","level":"district","parent":411000},{"adcode":411024,"lng":114.188507,"lat":34.100502,"name":"鄢陵县","level":"district","parent":411000},{"adcode":411025,"lng":113.493166,"lat":33.855943,"name":"襄城县","level":"district","parent":411000},{"adcode":411081,"lng":113.471316,"lat":34.154403,"name":"禹州市","level":"district","parent":411000},{"adcode":411082,"lng":113.768912,"lat":34.219257,"name":"长葛市","level":"district","parent":411000}],"total":6}