{"rows":[{"adcode":411202,"lng":111.19487,"lat":34.77812,"name":"湖滨区","level":"district","parent":411200},{"adcode":411203,"lng":111.103851,"lat":34.720244,"name":"陕州区","level":"district","parent":411200},{"adcode":411221,"lng":111.762992,"lat":34.763487,"name":"渑池县","level":"district","parent":411200},{"adcode":411224,"lng":111.052649,"lat":34.053995,"name":"卢氏县","level":"district","parent":411200},{"adcode":411281,"lng":111.869417,"lat":34.746868,"name":"义马市","level":"district","parent":411200},{"adcode":411282,"lng":110.88577,"lat":34.521264,"name":"灵宝市","level":"district","parent":411200}],"total":6}