{"rows":[{"adcode":"410402","people_count_2010":null,"lat":33.737579,"lng":113.299061,"name":"新华区","level":"district","parent":"平顶山市"},{"adcode":"411723","people_count_2010":748398,"lat":32.955626,"lng":114.637105,"name":"平舆县","level":"district","parent":"驻马店市"},{"adcode":"410421","people_count_2010":2000000,"lat":33.866359,"lng":113.066812,"name":"宝丰县","level":"district","parent":"平顶山市"},{"adcode":"411527","people_count_2010":570197,"lat":32.452639,"lng":115.415451,"name":"淮滨县","level":"district","parent":"信阳市"},{"adcode":"411328","people_count_2010":1300000,"lat":32.687892,"lng":112.838492,"name":"唐河县","level":"district","parent":"南阳市"},{"adcode":"411623","people_count_2010":940792,"lat":33.543845,"lng":114.60927,"name":"商水县","level":"district","parent":"周口市"},{"adcode":"410702","people_count_2010":391290,"lat":35.302684,"lng":113.878158,"name":"红旗区","level":"district","parent":"新乡市"},{"adcode":"410411","people_count_2010":286661,"lat":33.725681,"lng":113.320873,"name":"湛河区","level":"district","parent":"平顶山市"},{"adcode":"410804","people_count_2010":139533,"lat":35.265453,"lng":113.321703,"name":"马村区","level":"district","parent":"焦作市"},{"adcode":"411524","people_count_2010":495526,"lat":31.799982,"lng":115.406297,"name":"商城县","level":"district","parent":"信阳市"},{"adcode":"410481","people_count_2010":313828,"lat":33.302082,"lng":113.52625,"name":"舞钢市","level":"district","parent":"平顶山市"},{"adcode":"411523","people_count_2010":275304,"lat":31.63515,"lng":114.87705,"name":"新县","level":"district","parent":"信阳市"},{"adcode":"410182","people_count_2010":613804,"lat":34.789077,"lng":113.391523,"name":"荥阳市","level":"district","parent":"郑州市"},{"adcode":"411024","people_count_2010":551611,"lat":34.100502,"lng":114.188507,"name":"鄢陵县","level":"district","parent":"许昌市"},{"adcode":"411402","people_count_2010":787984,"lat":34.436553,"lng":115.65459,"name":"梁园区","level":"district","parent":"商丘市"},{"adcode":"411425","people_count_2010":954785,"lat":34.399634,"lng":115.863811,"name":"虞城县","level":"district","parent":"商丘市"},{"adcode":"410821","people_count_2010":287814,"lat":35.229923,"lng":113.447465,"name":"修武县","level":"district","parent":"焦作市"},{"adcode":"411121","people_count_2010":2000000,"lat":33.436278,"lng":113.610565,"name":"舞阳县","level":"district","parent":"漯河市"},{"adcode":"411321","people_count_2010":557153,"lat":33.488617,"lng":112.435583,"name":"南召县","level":"district","parent":"南阳市"},{"adcode":"411203","people_count_2010":null,"lat":34.720244,"lng":111.103851,"name":"陕州区","level":"district","parent":"三门峡市"},{"adcode":"411729","people_count_2010":1500000,"lat":32.749948,"lng":114.975246,"name":"新蔡县","level":"district","parent":"驻马店市"},{"adcode":"411303","people_count_2010":924578,"lat":32.989877,"lng":112.528789,"name":"卧龙区","level":"district","parent":"南阳市"},{"adcode":"411122","people_count_2010":null,"lat":33.80609,"lng":113.938891,"name":"临颍县","level":"district","parent":"漯河市"},{"adcode":"410822","people_count_2010":436319,"lat":35.170351,"lng":113.069313,"name":"博爱县","level":"district","parent":"焦作市"},{"adcode":"411725","people_count_2010":406021,"lat":32.801538,"lng":114.026679,"name":"确山县","level":"district","parent":"驻马店市"},{"adcode":"411502","people_count_2010":594391,"lat":32.123274,"lng":114.075031,"name":"浉河区","level":"district","parent":"信阳市"},{"adcode":"411726","people_count_2010":810409,"lat":32.725129,"lng":113.32605,"name":"泌阳县","level":"district","parent":"驻马店市"},{"adcode":"410302","people_count_2010":163176,"lat":34.682945,"lng":112.477298,"name":"老城区","level":"district","parent":"洛阳市"},{"adcode":"410304","people_count_2010":null,"lat":34.684738,"lng":112.491625,"name":"瀍河回族区","level":"district","parent":"洛阳市"},{"adcode":"410325","people_count_2010":507052,"lat":34.131563,"lng":112.087765,"name":"嵩县","level":"district","parent":"洛阳市"},{"adcode":"410303","people_count_2010":728819,"lat":34.667847,"lng":112.443232,"name":"西工区","level":"district","parent":"洛阳市"},{"adcode":"411522","people_count_2010":585353,"lat":32.010398,"lng":114.903577,"name":"光山县","level":"district","parent":"信阳市"},{"adcode":"411330","people_count_2010":393942,"lat":32.367153,"lng":113.406059,"name":"桐柏县","level":"district","parent":"南阳市"},{"adcode":"411702","people_count_2010":721723,"lat":32.977559,"lng":114.029149,"name":"驿城区","level":"district","parent":"驻马店市"},{"adcode":"411724","people_count_2010":645034,"lat":32.601826,"lng":114.38948,"name":"正阳县","level":"district","parent":"驻马店市"},{"adcode":"410782","people_count_2010":740435,"lat":35.461318,"lng":113.802518,"name":"辉县市","level":"district","parent":"新乡市"},{"adcode":"411727","people_count_2010":769995,"lat":33.004535,"lng":114.359495,"name":"汝南县","level":"district","parent":"驻马店市"},{"adcode":"410106","people_count_2010":131549,"lat":34.808689,"lng":113.298282,"name":"上街区","level":"district","parent":"郑州市"},{"adcode":"410181","people_count_2010":807911,"lat":34.75218,"lng":112.98283,"name":"巩义市","level":"district","parent":"郑州市"},{"adcode":"411224","people_count_2010":352449,"lat":34.053995,"lng":111.052649,"name":"卢氏县","level":"district","parent":"三门峡市"},{"adcode":"411002","people_count_2010":497925,"lat":34.02711,"lng":113.828307,"name":"魏都区","level":"district","parent":"许昌市"},{"adcode":"410223","people_count_2010":879713,"lat":34.412256,"lng":114.193927,"name":"尉氏县","level":"district","parent":"开封市"},{"adcode":"410923","people_count_2010":458487,"lat":36.075204,"lng":115.204336,"name":"南乐县","level":"district","parent":"濮阳市"},{"adcode":"411302","people_count_2010":887234,"lat":32.994857,"lng":112.544591,"name":"宛城区","level":"district","parent":"南阳市"},{"adcode":"410183","people_count_2010":797256,"lat":34.537846,"lng":113.380616,"name":"新密市","level":"district","parent":"郑州市"},{"adcode":"410611","people_count_2010":272332,"lat":35.748382,"lng":114.293917,"name":"淇滨区","level":"district","parent":"鹤壁市"},{"adcode":"410526","people_count_2010":1300000,"lat":35.574628,"lng":114.524,"name":"滑县","level":"district","parent":"安阳市"},{"adcode":"411628","people_count_2010":910251,"lat":33.861067,"lng":115.486386,"name":"鹿邑县","level":"district","parent":"周口市"},{"adcode":"410527","people_count_2010":693498,"lat":35.953702,"lng":114.904582,"name":"内黄县","level":"district","parent":"安阳市"},{"adcode":"411082","people_count_2010":687130,"lat":34.219257,"lng":113.768912,"name":"长葛市","level":"district","parent":"许昌市"},{"adcode":"411624","people_count_2010":983583,"lat":33.395514,"lng":115.078375,"name":"沈丘县","level":"district","parent":"周口市"},{"adcode":"410185","people_count_2010":668637,"lat":34.459939,"lng":113.037768,"name":"登封市","level":"district","parent":"郑州市"},{"adcode":"411326","people_count_2010":685683,"lat":33.136106,"lng":111.489026,"name":"淅川县","level":"district","parent":"南阳市"},{"adcode":"410622","people_count_2010":269149,"lat":35.609478,"lng":114.200379,"name":"淇县","level":"district","parent":"鹤壁市"},{"adcode":"410621","people_count_2010":665338,"lat":35.671282,"lng":114.550162,"name":"浚县","level":"district","parent":"鹤壁市"},{"adcode":"411528","people_count_2010":793802,"lat":32.344744,"lng":114.740713,"name":"息县","level":"district","parent":"信阳市"},{"adcode":"411329","people_count_2010":629210,"lat":32.524006,"lng":112.365624,"name":"新野县","level":"district","parent":"南阳市"},{"adcode":"410122","people_count_2010":727440,"lat":34.721976,"lng":114.022521,"name":"中牟县","level":"district","parent":"郑州市"},{"adcode":"410423","people_count_2010":1900000,"lat":33.740325,"lng":112.906703,"name":"鲁山县","level":"district","parent":"平顶山市"},{"adcode":"411421","people_count_2010":703428,"lat":34.648455,"lng":115.148146,"name":"民权县","level":"district","parent":"商丘市"},{"adcode":"410728","people_count_2010":809535,"lat":35.19615,"lng":114.673807,"name":"长垣县","level":"district","parent":"新乡市"},{"adcode":"411221","people_count_2010":346434,"lat":34.763487,"lng":111.762992,"name":"渑池县","level":"district","parent":"三门峡市"},{"adcode":"411324","people_count_2010":859564,"lat":33.036651,"lng":112.232722,"name":"镇平县","level":"district","parent":"南阳市"},{"adcode":"411503","people_count_2010":635651,"lat":32.098395,"lng":114.126027,"name":"平桥区","level":"district","parent":"信阳市"},{"adcode":"411323","people_count_2010":444414,"lat":33.302981,"lng":111.485772,"name":"西峡县","level":"district","parent":"南阳市"},{"adcode":"411721","people_count_2010":700152,"lat":33.382315,"lng":114.026864,"name":"西平县","level":"district","parent":"驻马店市"},{"adcode":"411526","people_count_2010":630376,"lat":32.134024,"lng":115.050123,"name":"潢川县","level":"district","parent":"信阳市"},{"adcode":"411023","people_count_2010":767449,"lat":34.005018,"lng":113.842898,"name":"许昌县","level":"district","parent":"许昌市"},{"adcode":"410184","people_count_2010":758128,"lat":34.394219,"lng":113.73967,"name":"新郑市","level":"district","parent":"郑州市"},{"adcode":"410311","people_count_2010":null,"lat":34.618557,"lng":112.456634,"name":"洛龙区","level":"district","parent":"洛阳市"},{"adcode":"410108","people_count_2010":269579,"lat":34.828591,"lng":113.61836,"name":"惠济区","level":"district","parent":"郑州市"},{"adcode":"411327","people_count_2010":633786,"lat":33.056126,"lng":112.938279,"name":"社旗县","level":"district","parent":"南阳市"},{"adcode":"410328","people_count_2010":421262,"lat":34.387179,"lng":111.655399,"name":"洛宁县","level":"district","parent":"洛阳市"},{"adcode":"411025","people_count_2010":671315,"lat":33.855943,"lng":113.493166,"name":"襄城县","level":"district","parent":"许昌市"},{"adcode":"411325","people_count_2010":575210,"lat":33.046358,"lng":111.843801,"name":"内乡县","level":"district","parent":"南阳市"},{"adcode":"410882","people_count_2010":447701,"lat":35.08901,"lng":112.934538,"name":"沁阳市","level":"district","parent":"焦作市"},{"adcode":"410811","people_count_2010":324121,"lat":35.21476,"lng":113.26766,"name":"山阳区","level":"district","parent":"焦作市"},{"adcode":"411728","people_count_2010":493930,"lat":33.14698,"lng":114.00371,"name":"遂平县","level":"district","parent":"驻马店市"},{"adcode":"410522","people_count_2010":849057,"lat":36.130585,"lng":114.130207,"name":"安阳县","level":"district","parent":"安阳市"},{"adcode":"411621","people_count_2010":625819,"lat":34.054061,"lng":114.392008,"name":"扶沟县","level":"district","parent":"周口市"},{"adcode":"410703","people_count_2010":193506,"lat":35.304905,"lng":113.866065,"name":"卫滨区","level":"district","parent":"新乡市"},{"adcode":"411602","people_count_2010":505171,"lat":33.614836,"lng":114.652136,"name":"川汇区","level":"district","parent":"周口市"},{"adcode":"410523","people_count_2010":430803,"lat":35.922349,"lng":114.362357,"name":"汤阴县","level":"district","parent":"安阳市"},{"adcode":"410327","people_count_2010":636491,"lat":34.516478,"lng":112.179989,"name":"宜阳县","level":"district","parent":"洛阳市"},{"adcode":"411322","people_count_2010":922467,"lat":33.255138,"lng":113.010933,"name":"方城县","level":"district","parent":"南阳市"},{"adcode":"410323","people_count_2010":470198,"lat":34.728679,"lng":112.141403,"name":"新安县","level":"district","parent":"洛阳市"},{"adcode":"411622","people_count_2010":787918,"lat":33.784378,"lng":114.530067,"name":"西华县","level":"district","parent":"周口市"},{"adcode":"411282","people_count_2010":668833,"lat":34.521264,"lng":110.88577,"name":"灵宝市","level":"district","parent":"三门峡市"},{"adcode":"410727","people_count_2010":743837,"lat":35.04057,"lng":114.423405,"name":"封丘县","level":"district","parent":"新乡市"},{"adcode":"410581","people_count_2010":789702,"lat":36.063403,"lng":113.823767,"name":"林州市","level":"district","parent":"安阳市"},{"adcode":"410422","people_count_2010":null,"lat":33.621252,"lng":113.358298,"name":"叶县","level":"district","parent":"平顶山市"},{"adcode":"411626","people_count_2010":1100000,"lat":33.732547,"lng":114.870166,"name":"淮阳县","level":"district","parent":"周口市"},{"adcode":"411627","people_count_2010":1100000,"lat":34.065312,"lng":114.853834,"name":"太康县","level":"district","parent":"周口市"},{"adcode":"410205","people_count_2010":130604,"lat":34.779727,"lng":114.350246,"name":"禹王台区","level":"district","parent":"开封市"},{"adcode":"411381","people_count_2010":1500000,"lat":32.681642,"lng":112.092716,"name":"邓州市","level":"district","parent":"南阳市"},{"adcode":"410102","people_count_2010":905491,"lat":34.748286,"lng":113.611576,"name":"中原区","level":"district","parent":"郑州市"},{"adcode":"411423","people_count_2010":523403,"lat":34.449299,"lng":115.320055,"name":"宁陵县","level":"district","parent":"商丘市"},{"adcode":"410221","people_count_2010":956533,"lat":34.554585,"lng":114.770472,"name":"杞县","level":"district","parent":"开封市"},{"adcode":"410222","people_count_2010":567495,"lat":34.477302,"lng":114.467734,"name":"通许县","level":"district","parent":"开封市"},{"adcode":"411403","people_count_2010":748408,"lat":34.390536,"lng":115.653813,"name":"睢阳区","level":"district","parent":"商丘市"},{"adcode":"410721","people_count_2010":339942,"lat":35.190021,"lng":113.806186,"name":"新乡县","level":"district","parent":"新乡市"},{"adcode":"411424","people_count_2010":778158,"lat":34.075277,"lng":115.307433,"name":"柘城县","level":"district","parent":"商丘市"},{"adcode":"411422","people_count_2010":711136,"lat":34.428433,"lng":115.070109,"name":"睢县","level":"district","parent":"商丘市"},{"adcode":"410212","people_count_2010":null,"lat":34.756476,"lng":114.437622,"name":"祥符区","level":"district","parent":"开封市"},{"adcode":"410322","people_count_2010":414637,"lat":34.826485,"lng":112.443892,"name":"孟津县","level":"district","parent":"洛阳市"},{"adcode":"411202","people_count_2010":325628,"lat":34.77812,"lng":111.19487,"name":"湖滨区","level":"district","parent":"三门峡市"},{"adcode":"410404","people_count_2010":54912,"lat":33.901538,"lng":112.889885,"name":"石龙区","level":"district","parent":"平顶山市"},{"adcode":"410503","people_count_2010":245624,"lat":36.10978,"lng":114.352646,"name":"北关区","level":"district","parent":"安阳市"},{"adcode":"410803","people_count_2010":106064,"lat":35.236145,"lng":113.175485,"name":"中站区","level":"district","parent":"焦作市"},{"adcode":"411625","people_count_2010":1000000,"lat":33.643852,"lng":115.189,"name":"郸城县","level":"district","parent":"周口市"},{"adcode":"411681","people_count_2010":1000000,"lat":33.443085,"lng":114.899521,"name":"项城市","level":"district","parent":"周口市"},{"adcode":"410823","people_count_2010":713945,"lat":35.09885,"lng":113.408334,"name":"武陟县","level":"district","parent":"焦作市"},{"adcode":"410726","people_count_2010":469280,"lat":35.149515,"lng":114.200982,"name":"延津县","level":"district","parent":"新乡市"},{"adcode":"410724","people_count_2010":394384,"lat":35.261685,"lng":113.657249,"name":"获嘉县","level":"district","parent":"新乡市"},{"adcode":"410825","people_count_2010":421796,"lat":34.941233,"lng":113.079118,"name":"温县","level":"district","parent":"焦作市"},{"adcode":"410103","people_count_2010":712646,"lat":34.730936,"lng":113.645422,"name":"二七区","level":"district","parent":"郑州市"},{"adcode":"411104","people_count_2010":477340,"lat":33.567555,"lng":114.051686,"name":"召陵区","level":"district","parent":"漯河市"},{"adcode":"410926","people_count_2010":469874,"lat":35.851977,"lng":115.504212,"name":"范县","level":"district","parent":"濮阳市"},{"adcode":"410883","people_count_2010":367113,"lat":34.90963,"lng":112.78708,"name":"孟州市","level":"district","parent":"焦作市"},{"adcode":"411102","people_count_2010":323954,"lat":33.565441,"lng":114.017948,"name":"源汇区","level":"district","parent":"漯河市"},{"adcode":"410425","people_count_2010":null,"lat":33.971993,"lng":113.220451,"name":"郏县","level":"district","parent":"平顶山市"},{"adcode":"410305","people_count_2010":619221,"lat":34.654251,"lng":112.399243,"name":"涧西区","level":"district","parent":"洛阳市"},{"adcode":"410902","people_count_2010":655674,"lat":35.760473,"lng":115.03184,"name":"华龙区","level":"district","parent":"濮阳市"},{"adcode":"410927","people_count_2010":332124,"lat":35.996474,"lng":115.855681,"name":"台前县","level":"district","parent":"濮阳市"},{"adcode":"411103","people_count_2010":493680,"lat":33.588897,"lng":114.016813,"name":"郾城区","level":"district","parent":"漯河市"},{"adcode":"411281","people_count_2010":144779,"lat":34.746868,"lng":111.869417,"name":"义马市","level":"district","parent":"三门峡市"},{"adcode":"410203","people_count_2010":null,"lat":34.800459,"lng":114.364875,"name":"顺河回族区","level":"district","parent":"开封市"},{"adcode":"410603","people_count_2010":230968,"lat":35.896058,"lng":114.184202,"name":"山城区","level":"district","parent":"鹤壁市"},{"adcode":"410306","people_count_2010":69076,"lat":34.899093,"lng":112.584796,"name":"吉利区","level":"district","parent":"洛阳市"},{"adcode":"410381","people_count_2010":666696,"lat":34.723042,"lng":112.787739,"name":"偃师市","level":"district","parent":"洛阳市"},{"adcode":"411426","people_count_2010":915291,"lat":34.240894,"lng":116.13989,"name":"夏邑县","level":"district","parent":"商丘市"},{"adcode":"410725","people_count_2010":659380,"lat":35.054001,"lng":113.965966,"name":"原阳县","level":"district","parent":"新乡市"},{"adcode":"410928","people_count_2010":1000000,"lat":35.710349,"lng":115.023844,"name":"濮阳县","level":"district","parent":"濮阳市"},{"adcode":"410781","people_count_2010":495744,"lat":35.404295,"lng":114.065855,"name":"卫辉市","level":"district","parent":"新乡市"},{"adcode":"410704","people_count_2010":144298,"lat":35.379855,"lng":113.906712,"name":"凤泉区","level":"district","parent":"新乡市"},{"adcode":"410922","people_count_2010":635927,"lat":35.902413,"lng":115.107287,"name":"清丰县","level":"district","parent":"濮阳市"},{"adcode":"410324","people_count_2010":342848,"lat":33.783195,"lng":111.618386,"name":"栾川县","level":"district","parent":"洛阳市"},{"adcode":"410326","people_count_2010":408009,"lat":34.15323,"lng":112.473789,"name":"汝阳县","level":"district","parent":"洛阳市"},{"adcode":"410802","people_count_2010":295695,"lat":35.241353,"lng":113.226126,"name":"解放区","level":"district","parent":"焦作市"},{"adcode":"411722","people_count_2010":1100000,"lat":33.264719,"lng":114.266892,"name":"上蔡县","level":"district","parent":"驻马店市"},{"adcode":"410225","people_count_2010":677826,"lat":34.829899,"lng":114.820572,"name":"兰考县","level":"district","parent":"开封市"},{"adcode":"410329","people_count_2010":756669,"lat":34.423416,"lng":112.429384,"name":"伊川县","level":"district","parent":"洛阳市"},{"adcode":"411521","people_count_2010":504577,"lat":32.203206,"lng":114.533414,"name":"罗山县","level":"district","parent":"信阳市"},{"adcode":"411081","people_count_2010":1100000,"lat":34.154403,"lng":113.471316,"name":"禹州市","level":"district","parent":"许昌市"},{"adcode":"411525","people_count_2010":1000000,"lat":32.183074,"lng":115.667328,"name":"固始县","level":"district","parent":"信阳市"},{"adcode":"410711","people_count_2010":317994,"lat":35.312974,"lng":113.89716,"name":"牧野区","level":"district","parent":"新乡市"},{"adcode":"410104","people_count_2010":645932,"lat":34.746453,"lng":113.685313,"name":"管城回族区","level":"district","parent":"郑州市"},{"adcode":"410502","people_count_2010":442885,"lat":36.098101,"lng":114.352562,"name":"文峰区","level":"district","parent":"安阳市"},{"adcode":"410602","people_count_2010":131421,"lat":35.936128,"lng":114.166551,"name":"鹤山区","level":"district","parent":"鹤壁市"},{"adcode":"410204","people_count_2010":null,"lat":34.792383,"lng":114.3485,"name":"鼓楼区","level":"district","parent":"开封市"},{"adcode":"410403","people_count_2010":302603,"lat":33.739285,"lng":113.310327,"name":"卫东区","level":"district","parent":"平顶山市"},{"adcode":"410505","people_count_2010":243874,"lat":36.108974,"lng":114.300098,"name":"殷都区","level":"district","parent":"安阳市"},{"adcode":"411481","people_count_2010":1200000,"lat":33.931318,"lng":116.449672,"name":"永城市","level":"district","parent":"商丘市"},{"adcode":"410202","people_count_2010":592376,"lat":34.799833,"lng":114.353348,"name":"龙亭区","level":"district","parent":"开封市"},{"adcode":"410105","people_count_2010":1600000,"lat":34.775838,"lng":113.686037,"name":"金水区","level":"district","parent":"郑州市"},{"adcode":"410506","people_count_2010":214456,"lat":36.095568,"lng":114.323522,"name":"龙安区","level":"district","parent":"安阳市"},{"adcode":"410482","people_count_2010":927934,"lat":34.167408,"lng":112.845336,"name":"汝州市","level":"district","parent":"平顶山市"}],"total":157}