{"rows":[{"adcode":411302,"lng":112.544591,"lat":32.994857,"name":"宛城区","level":"district","parent":411300},{"adcode":411303,"lng":112.528789,"lat":32.989877,"name":"卧龙区","level":"district","parent":411300},{"adcode":411321,"lng":112.435583,"lat":33.488617,"name":"南召县","level":"district","parent":411300},{"adcode":411322,"lng":113.010933,"lat":33.255138,"name":"方城县","level":"district","parent":411300},{"adcode":411323,"lng":111.485772,"lat":33.302981,"name":"西峡县","level":"district","parent":411300},{"adcode":411324,"lng":112.232722,"lat":33.036651,"name":"镇平县","level":"district","parent":411300},{"adcode":411325,"lng":111.843801,"lat":33.046358,"name":"内乡县","level":"district","parent":411300},{"adcode":411326,"lng":111.489026,"lat":33.136106,"name":"淅川县","level":"district","parent":411300},{"adcode":411327,"lng":112.938279,"lat":33.056126,"name":"社旗县","level":"district","parent":411300},{"adcode":411328,"lng":112.838492,"lat":32.687892,"name":"唐河县","level":"district","parent":411300},{"adcode":411329,"lng":112.365624,"lat":32.524006,"name":"新野县","level":"district","parent":411300},{"adcode":411330,"lng":113.406059,"lat":32.367153,"name":"桐柏县","level":"district","parent":411300},{"adcode":411381,"lng":112.092716,"lat":32.681642,"name":"邓州市","level":"district","parent":411300}],"total":13}