{"rows":[{"adcode":411402,"lng":115.65459,"lat":34.436553,"name":"梁园区","level":"district","parent":411400},{"adcode":411403,"lng":115.653813,"lat":34.390536,"name":"睢阳区","level":"district","parent":411400},{"adcode":411421,"lng":115.148146,"lat":34.648455,"name":"民权县","level":"district","parent":411400},{"adcode":411422,"lng":115.070109,"lat":34.428433,"name":"睢县","level":"district","parent":411400},{"adcode":411423,"lng":115.320055,"lat":34.449299,"name":"宁陵县","level":"district","parent":411400},{"adcode":411424,"lng":115.307433,"lat":34.075277,"name":"柘城县","level":"district","parent":411400},{"adcode":411425,"lng":115.863811,"lat":34.399634,"name":"虞城县","level":"district","parent":411400},{"adcode":411426,"lng":116.13989,"lat":34.240894,"name":"夏邑县","level":"district","parent":411400},{"adcode":411481,"lng":116.449672,"lat":33.931318,"name":"永城市","level":"district","parent":411400}],"total":9}