{"rows":[{"adcode":411502,"lng":114.075031,"lat":32.123274,"name":"浉河区","level":"district","parent":411500},{"adcode":411503,"lng":114.126027,"lat":32.098395,"name":"平桥区","level":"district","parent":411500},{"adcode":411521,"lng":114.533414,"lat":32.203206,"name":"罗山县","level":"district","parent":411500},{"adcode":411522,"lng":114.903577,"lat":32.010398,"name":"光山县","level":"district","parent":411500},{"adcode":411523,"lng":114.87705,"lat":31.63515,"name":"新县","level":"district","parent":411500},{"adcode":411524,"lng":115.406297,"lat":31.799982,"name":"商城县","level":"district","parent":411500},{"adcode":411525,"lng":115.667328,"lat":32.183074,"name":"固始县","level":"district","parent":411500},{"adcode":411526,"lng":115.050123,"lat":32.134024,"name":"潢川县","level":"district","parent":411500},{"adcode":411527,"lng":115.415451,"lat":32.452639,"name":"淮滨县","level":"district","parent":411500},{"adcode":411528,"lng":114.740713,"lat":32.344744,"name":"息县","level":"district","parent":411500}],"total":10}