{"rows":[{"adcode":420302,"lng":110.78621,"lat":32.644463,"name":"茅箭区","level":"district","parent":420300},{"adcode":420303,"lng":110.772365,"lat":32.652516,"name":"张湾区","level":"district","parent":420300},{"adcode":420304,"lng":110.812099,"lat":32.838267,"name":"郧阳区","level":"district","parent":420300},{"adcode":420322,"lng":110.426472,"lat":32.991457,"name":"郧西县","level":"district","parent":420300},{"adcode":420323,"lng":110.2296,"lat":32.22586,"name":"竹山县","level":"district","parent":420300},{"adcode":420324,"lng":109.717196,"lat":32.315342,"name":"竹溪县","level":"district","parent":420300},{"adcode":420325,"lng":110.741966,"lat":32.055002,"name":"房县","level":"district","parent":420300},{"adcode":420381,"lng":111.513793,"lat":32.538839,"name":"丹江口市","level":"district","parent":420300}],"total":8}