{"rows":[{"adcode":420502,"lng":111.295468,"lat":30.702476,"name":"西陵区","level":"district","parent":420500},{"adcode":420503,"lng":111.307215,"lat":30.679053,"name":"伍家岗区","level":"district","parent":420500},{"adcode":420504,"lng":111.268163,"lat":30.692322,"name":"点军区","level":"district","parent":420500},{"adcode":420505,"lng":111.427642,"lat":30.530744,"name":"猇亭区","level":"district","parent":420500},{"adcode":420506,"lng":111.326747,"lat":30.770199,"name":"夷陵区","level":"district","parent":420500},{"adcode":420525,"lng":111.64331,"lat":31.059626,"name":"远安县","level":"district","parent":420500},{"adcode":420526,"lng":110.754499,"lat":31.34795,"name":"兴山县","level":"district","parent":420500},{"adcode":420527,"lng":110.976785,"lat":30.823908,"name":"秭归县","level":"district","parent":420500},{"adcode":420528,"lng":111.198475,"lat":30.466534,"name":"长阳土家族自治县","level":"district","parent":420500},{"adcode":420529,"lng":110.674938,"lat":30.199252,"name":"五峰土家族自治县","level":"district","parent":420500},{"adcode":420581,"lng":111.454367,"lat":30.387234,"name":"宜都市","level":"district","parent":420500},{"adcode":420582,"lng":111.793419,"lat":30.824492,"name":"当阳市","level":"district","parent":420500},{"adcode":420583,"lng":111.751799,"lat":30.425364,"name":"枝江市","level":"district","parent":420500}],"total":13}