{"rows":[{"adcode":421102,"lng":114.878934,"lat":30.447435,"name":"黄州区","level":"district","parent":421100},{"adcode":421121,"lng":114.872029,"lat":30.63569,"name":"团风县","level":"district","parent":421100},{"adcode":421122,"lng":114.615095,"lat":31.284777,"name":"红安县","level":"district","parent":421100},{"adcode":421123,"lng":115.398984,"lat":30.781679,"name":"罗田县","level":"district","parent":421100},{"adcode":421124,"lng":115.67753,"lat":30.735794,"name":"英山县","level":"district","parent":421100},{"adcode":421125,"lng":115.26344,"lat":30.454837,"name":"浠水县","level":"district","parent":421100},{"adcode":421126,"lng":115.433964,"lat":30.234927,"name":"蕲春县","level":"district","parent":421100},{"adcode":421127,"lng":115.942548,"lat":30.075113,"name":"黄梅县","level":"district","parent":421100},{"adcode":421181,"lng":115.02541,"lat":31.177906,"name":"麻城市","level":"district","parent":421100},{"adcode":421182,"lng":115.56242,"lat":29.849342,"name":"武穴市","level":"district","parent":421100}],"total":10}