{"rows":[{"adcode":430302,"lng":112.907427,"lat":27.86077,"name":"雨湖区","level":"district","parent":430300},{"adcode":430304,"lng":112.927707,"lat":27.828854,"name":"岳塘区","level":"district","parent":430300},{"adcode":430321,"lng":112.952829,"lat":27.778601,"name":"湘潭县","level":"district","parent":430300},{"adcode":430381,"lng":112.525217,"lat":27.734918,"name":"湘乡市","level":"district","parent":430300},{"adcode":430382,"lng":112.52848,"lat":27.922682,"name":"韶山市","level":"district","parent":430300}],"total":5}