{"rows":[{"adcode":430702,"lng":111.690718,"lat":29.040477,"name":"武陵区","level":"district","parent":430700},{"adcode":430703,"lng":111.685327,"lat":29.014426,"name":"鼎城区","level":"district","parent":430700},{"adcode":430721,"lng":112.172289,"lat":29.414483,"name":"安乡县","level":"district","parent":430700},{"adcode":430722,"lng":111.968506,"lat":28.907319,"name":"汉寿县","level":"district","parent":430700},{"adcode":430723,"lng":111.761682,"lat":29.64264,"name":"澧县","level":"district","parent":430700},{"adcode":430724,"lng":111.645602,"lat":29.443217,"name":"临澧县","level":"district","parent":430700},{"adcode":430725,"lng":111.484503,"lat":28.902734,"name":"桃源县","level":"district","parent":430700},{"adcode":430726,"lng":111.379087,"lat":29.584703,"name":"石门县","level":"district","parent":430700},{"adcode":430781,"lng":111.879609,"lat":29.630867,"name":"津市市","level":"district","parent":430700}],"total":9}