{"rows":[{"adcode":431002,"lng":113.032208,"lat":25.792628,"name":"北湖区","level":"district","parent":431000},{"adcode":431003,"lng":113.038698,"lat":25.793157,"name":"苏仙区","level":"district","parent":431000},{"adcode":431021,"lng":112.734466,"lat":25.737447,"name":"桂阳县","level":"district","parent":431000},{"adcode":431022,"lng":112.947884,"lat":25.394345,"name":"宜章县","level":"district","parent":431000},{"adcode":431023,"lng":113.114819,"lat":26.129392,"name":"永兴县","level":"district","parent":431000},{"adcode":431024,"lng":112.370618,"lat":25.587309,"name":"嘉禾县","level":"district","parent":431000},{"adcode":431025,"lng":112.564589,"lat":25.279119,"name":"临武县","level":"district","parent":431000},{"adcode":431026,"lng":113.685686,"lat":25.553759,"name":"汝城县","level":"district","parent":431000},{"adcode":431027,"lng":113.945879,"lat":26.073917,"name":"桂东县","level":"district","parent":431000},{"adcode":431028,"lng":113.27217,"lat":26.708625,"name":"安仁县","level":"district","parent":431000},{"adcode":431081,"lng":113.23682,"lat":25.974152,"name":"资兴市","level":"district","parent":431000}],"total":11}