{"rows":[{"adcode":440103,"lng":113.243038,"lat":23.124943,"name":"荔湾区","level":"district","parent":440100},{"adcode":440104,"lng":113.280714,"lat":23.125624,"name":"越秀区","level":"district","parent":440100},{"adcode":440105,"lng":113.262008,"lat":23.103131,"name":"海珠区","level":"district","parent":440100},{"adcode":440106,"lng":113.335367,"lat":23.13559,"name":"天河区","level":"district","parent":440100},{"adcode":440111,"lng":113.262831,"lat":23.162281,"name":"白云区","level":"district","parent":440100},{"adcode":440112,"lng":113.450761,"lat":23.103239,"name":"黄埔区","level":"district","parent":440100},{"adcode":440113,"lng":113.364619,"lat":22.938582,"name":"番禺区","level":"district","parent":440100},{"adcode":440114,"lng":113.211184,"lat":23.39205,"name":"花都区","level":"district","parent":440100},{"adcode":440115,"lng":113.53738,"lat":22.794531,"name":"南沙区","level":"district","parent":440100},{"adcode":440117,"lng":113.587386,"lat":23.545283,"name":"从化区","level":"district","parent":440100},{"adcode":440118,"lng":113.829579,"lat":23.290497,"name":"增城区","level":"district","parent":440100}],"total":11}