{"rows":[{"adcode":440604,"lng":113.112414,"lat":23.019643,"name":"禅城区","level":"district","parent":440600},{"adcode":440605,"lng":113.145577,"lat":23.031562,"name":"南海区","level":"district","parent":440600},{"adcode":440606,"lng":113.281826,"lat":22.75851,"name":"顺德区","level":"district","parent":440600},{"adcode":440607,"lng":112.899414,"lat":23.16504,"name":"三水区","level":"district","parent":440600},{"adcode":440608,"lng":112.882123,"lat":22.893855,"name":"高明区","level":"district","parent":440600}],"total":5}