{"rows":[{"adcode":441302,"lng":114.413978,"lat":23.079883,"name":"惠城区","level":"district","parent":441300},{"adcode":441303,"lng":114.469444,"lat":22.78851,"name":"惠阳区","level":"district","parent":441300},{"adcode":441322,"lng":114.284254,"lat":23.167575,"name":"博罗县","level":"district","parent":441300},{"adcode":441323,"lng":114.723092,"lat":22.983036,"name":"惠东县","level":"district","parent":441300},{"adcode":441324,"lng":114.259986,"lat":23.723894,"name":"龙门县","level":"district","parent":441300}],"total":5}