{"rows":[{"adcode":451202,"lng":108.062131,"lat":24.695625,"name":"金城江区","level":"district","parent":451200},{"adcode":451203,"lng":108.653965,"lat":24.492193,"name":"宜州区","level":"district","parent":451200},{"adcode":451221,"lng":107.546605,"lat":24.983192,"name":"南丹县","level":"district","parent":451200},{"adcode":451222,"lng":107.174939,"lat":24.985964,"name":"天峨县","level":"district","parent":451200},{"adcode":451223,"lng":107.044592,"lat":24.544561,"name":"凤山县","level":"district","parent":451200},{"adcode":451224,"lng":107.373696,"lat":24.509367,"name":"东兰县","level":"district","parent":451200},{"adcode":451225,"lng":108.902453,"lat":24.779327,"name":"罗城仫佬族自治县","level":"district","parent":451200},{"adcode":451226,"lng":108.258669,"lat":24.827628,"name":"环江毛南族自治县","level":"district","parent":451200},{"adcode":451227,"lng":107.253126,"lat":24.139538,"name":"巴马瑶族自治县","level":"district","parent":451200},{"adcode":451228,"lng":108.102761,"lat":23.934964,"name":"都安瑶族自治县","level":"district","parent":451200},{"adcode":451229,"lng":107.9945,"lat":23.739596,"name":"大化瑶族自治县","level":"district","parent":451200}],"total":11}