{"rows":[{"adcode":460100,"lng":110.33119,"lat":20.031971,"name":"海口市","level":"city","parent":460000},{"adcode":460200,"lng":109.508268,"lat":18.247872,"name":"三亚市","level":"city","parent":460000},{"adcode":460300,"lng":112.34882,"lat":16.831039,"name":"三沙市","level":"city","parent":460000},{"adcode":460400,"lng":109.576782,"lat":19.517486,"name":"儋州市","level":"city","parent":460000},{"adcode":469001,"lng":109.516662,"lat":18.776921,"name":"五指山市","level":"city","parent":460000},{"adcode":469002,"lng":110.466785,"lat":19.246011,"name":"琼海市","level":"city","parent":460000},{"adcode":469005,"lng":110.753975,"lat":19.612986,"name":"文昌市","level":"city","parent":460000},{"adcode":469006,"lng":110.388793,"lat":18.796216,"name":"万宁市","level":"city","parent":460000},{"adcode":469007,"lng":108.653789,"lat":19.10198,"name":"东方市","level":"city","parent":460000},{"adcode":469021,"lng":110.349235,"lat":19.684966,"name":"定安县","level":"city","parent":460000},{"adcode":469022,"lng":110.102773,"lat":19.362916,"name":"屯昌县","level":"city","parent":460000},{"adcode":469023,"lng":110.007147,"lat":19.737095,"name":"澄迈县","level":"city","parent":460000},{"adcode":469024,"lng":109.687697,"lat":19.908293,"name":"临高县","level":"city","parent":460000},{"adcode":469025,"lng":109.452606,"lat":19.224584,"name":"白沙黎族自治县","level":"city","parent":460000},{"adcode":469026,"lng":109.053351,"lat":19.260968,"name":"昌江黎族自治县","level":"city","parent":460000},{"adcode":469027,"lng":109.175444,"lat":18.74758,"name":"乐东黎族自治县","level":"city","parent":460000},{"adcode":469028,"lng":110.037218,"lat":18.505006,"name":"陵水黎族自治县","level":"city","parent":460000},{"adcode":469029,"lng":109.70245,"lat":18.636371,"name":"保亭黎族苗族自治县","level":"city","parent":460000},{"adcode":469030,"lng":109.839996,"lat":19.03557,"name":"琼中黎族苗族自治县","level":"city","parent":460000}],"total":19}