{"rows":[{"adcode":510302,"lng":104.778188,"lat":29.343231,"name":"自流井区","level":"district","parent":510300},{"adcode":510303,"lng":104.714372,"lat":29.345675,"name":"贡井区","level":"district","parent":510300},{"adcode":510304,"lng":104.783229,"lat":29.367136,"name":"大安区","level":"district","parent":510300},{"adcode":510311,"lng":104.876417,"lat":29.272521,"name":"沿滩区","level":"district","parent":510300},{"adcode":510321,"lng":104.423932,"lat":29.454851,"name":"荣县","level":"district","parent":510300},{"adcode":510322,"lng":104.984256,"lat":29.181282,"name":"富顺县","level":"district","parent":510300}],"total":6}