{"rows":[{"adcode":510903,"lng":105.582215,"lat":30.502647,"name":"船山区","level":"district","parent":510900},{"adcode":510904,"lng":105.459383,"lat":30.346121,"name":"安居区","level":"district","parent":510900},{"adcode":510921,"lng":105.713699,"lat":30.774883,"name":"蓬溪县","level":"district","parent":510900},{"adcode":510922,"lng":105.381849,"lat":30.868752,"name":"射洪市","level":"district","parent":510900},{"adcode":510923,"lng":105.252187,"lat":30.581571,"name":"大英县","level":"district","parent":510900}],"total":5}