{"rows":[{"adcode":511402,"lng":103.831553,"lat":30.048128,"name":"东坡区","level":"district","parent":511400},{"adcode":511403,"lng":103.8701,"lat":30.192298,"name":"彭山区","level":"district","parent":511400},{"adcode":511421,"lng":104.147646,"lat":29.996721,"name":"仁寿县","level":"district","parent":511400},{"adcode":511423,"lng":103.375006,"lat":29.904867,"name":"洪雅县","level":"district","parent":511400},{"adcode":511424,"lng":103.518333,"lat":30.012751,"name":"丹棱县","level":"district","parent":511400},{"adcode":511425,"lng":103.846131,"lat":29.831469,"name":"青神县","level":"district","parent":511400}],"total":6}