{"rows":[{"adcode":511602,"lng":106.632907,"lat":30.456462,"name":"广安区","level":"district","parent":511600},{"adcode":511603,"lng":106.893277,"lat":30.4963,"name":"前锋区","level":"district","parent":511600},{"adcode":511621,"lng":106.444451,"lat":30.533538,"name":"岳池县","level":"district","parent":511600},{"adcode":511622,"lng":106.292473,"lat":30.344291,"name":"武胜县","level":"district","parent":511600},{"adcode":511623,"lng":106.934968,"lat":30.334323,"name":"邻水县","level":"district","parent":511600},{"adcode":511681,"lng":106.777882,"lat":30.380574,"name":"华蓥市","level":"district","parent":511600}],"total":6}