{"rows":[{"adcode":513401,"lng":102.258758,"lat":27.885786,"name":"西昌市","level":"district","parent":513400},{"adcode":513422,"lng":101.280184,"lat":27.926859,"name":"木里藏族自治县","level":"district","parent":513400},{"adcode":513423,"lng":101.508909,"lat":27.423415,"name":"盐源县","level":"district","parent":513400},{"adcode":513424,"lng":102.178845,"lat":27.403827,"name":"德昌县","level":"district","parent":513400},{"adcode":513425,"lng":102.249548,"lat":26.658702,"name":"会理县","level":"district","parent":513400},{"adcode":513426,"lng":102.578985,"lat":26.630713,"name":"会东县","level":"district","parent":513400},{"adcode":513427,"lng":102.757374,"lat":27.065205,"name":"宁南县","level":"district","parent":513400},{"adcode":513428,"lng":102.541082,"lat":27.376828,"name":"普格县","level":"district","parent":513400},{"adcode":513429,"lng":102.808801,"lat":27.709062,"name":"布拖县","level":"district","parent":513400},{"adcode":513430,"lng":103.248704,"lat":27.695916,"name":"金阳县","level":"district","parent":513400},{"adcode":513431,"lng":102.843991,"lat":28.010554,"name":"昭觉县","level":"district","parent":513400},{"adcode":513432,"lng":102.412342,"lat":28.305486,"name":"喜德县","level":"district","parent":513400},{"adcode":513433,"lng":102.170046,"lat":28.550844,"name":"冕宁县","level":"district","parent":513400},{"adcode":513434,"lng":102.508875,"lat":28.639632,"name":"越西县","level":"district","parent":513400},{"adcode":513435,"lng":102.775924,"lat":28.977094,"name":"甘洛县","level":"district","parent":513400},{"adcode":513436,"lng":103.132007,"lat":28.327946,"name":"美姑县","level":"district","parent":513400},{"adcode":513437,"lng":103.571584,"lat":28.262946,"name":"雷波县","level":"district","parent":513400}],"total":17}