{"rows":[{"adcode":520102,"lng":106.715963,"lat":26.573743,"name":"南明区","level":"district","parent":520100},{"adcode":520103,"lng":106.713397,"lat":26.58301,"name":"云岩区","level":"district","parent":520100},{"adcode":520111,"lng":106.670791,"lat":26.410464,"name":"花溪区","level":"district","parent":520100},{"adcode":520112,"lng":106.762123,"lat":26.630928,"name":"乌当区","level":"district","parent":520100},{"adcode":520113,"lng":106.633037,"lat":26.676849,"name":"白云区","level":"district","parent":520100},{"adcode":520115,"lng":106.626323,"lat":26.646358,"name":"观山湖区","level":"district","parent":520100},{"adcode":520121,"lng":106.969438,"lat":27.056793,"name":"开阳县","level":"district","parent":520100},{"adcode":520122,"lng":106.737693,"lat":27.092665,"name":"息烽县","level":"district","parent":520100},{"adcode":520123,"lng":106.599218,"lat":26.840672,"name":"修文县","level":"district","parent":520100},{"adcode":520181,"lng":106.470278,"lat":26.551289,"name":"清镇市","level":"district","parent":520100}],"total":10}