{"rows":[{"adcode":522701,"lng":107.517021,"lat":26.258205,"name":"都匀市","level":"district","parent":522700},{"adcode":522702,"lng":107.513508,"lat":26.702508,"name":"福泉市","level":"district","parent":522700},{"adcode":522722,"lng":107.8838,"lat":25.412239,"name":"荔波县","level":"district","parent":522700},{"adcode":522723,"lng":107.233588,"lat":26.580807,"name":"贵定县","level":"district","parent":522700},{"adcode":522725,"lng":107.478417,"lat":27.066339,"name":"瓮安县","level":"district","parent":522700},{"adcode":522726,"lng":107.542757,"lat":25.826283,"name":"独山县","level":"district","parent":522700},{"adcode":522727,"lng":107.32405,"lat":25.831803,"name":"平塘县","level":"district","parent":522700},{"adcode":522728,"lng":106.750006,"lat":25.429894,"name":"罗甸县","level":"district","parent":522700},{"adcode":522729,"lng":106.447376,"lat":26.022116,"name":"长顺县","level":"district","parent":522700},{"adcode":522730,"lng":106.977733,"lat":26.448809,"name":"龙里县","level":"district","parent":522700},{"adcode":522731,"lng":106.657848,"lat":26.128637,"name":"惠水县","level":"district","parent":522700},{"adcode":522732,"lng":107.87747,"lat":25.985183,"name":"三都水族自治县","level":"district","parent":522700}],"total":12}