{"rows":[{"adcode":530100,"lng":102.712251,"lat":25.040609,"name":"昆明市","level":"city","parent":530000},{"adcode":530300,"lng":103.797851,"lat":25.501557,"name":"曲靖市","level":"city","parent":530000},{"adcode":530400,"lng":102.543907,"lat":24.350461,"name":"玉溪市","level":"city","parent":530000},{"adcode":530500,"lng":99.167133,"lat":25.111802,"name":"保山市","level":"city","parent":530000},{"adcode":530600,"lng":103.717216,"lat":27.336999,"name":"昭通市","level":"city","parent":530000},{"adcode":530700,"lng":100.233026,"lat":26.872108,"name":"丽江市","level":"city","parent":530000},{"adcode":530800,"lng":100.972344,"lat":22.777321,"name":"普洱市","level":"city","parent":530000},{"adcode":530900,"lng":100.08697,"lat":23.886567,"name":"临沧市","level":"city","parent":530000},{"adcode":532300,"lng":101.546046,"lat":25.041988,"name":"楚雄彝族自治州","level":"city","parent":530000},{"adcode":532500,"lng":103.384182,"lat":23.366775,"name":"红河哈尼族彝族自治州","level":"city","parent":530000},{"adcode":532600,"lng":104.24401,"lat":23.36951,"name":"文山壮族苗族自治州","level":"city","parent":530000},{"adcode":532800,"lng":100.797941,"lat":22.001724,"name":"西双版纳傣族自治州","level":"city","parent":530000},{"adcode":532900,"lng":100.225668,"lat":25.589449,"name":"大理白族自治州","level":"city","parent":530000},{"adcode":533100,"lng":98.578363,"lat":24.436694,"name":"德宏傣族景颇族自治州","level":"city","parent":530000},{"adcode":533300,"lng":98.854304,"lat":25.850949,"name":"怒江傈僳族自治州","level":"city","parent":530000},{"adcode":533400,"lng":99.706463,"lat":27.826853,"name":"迪庆藏族自治州","level":"city","parent":530000}],"total":16}