{"rows":[{"adcode":530302,"lng":103.798054,"lat":25.501269,"name":"麒麟区","level":"district","parent":530300},{"adcode":530303,"lng":103.819262,"lat":25.600878,"name":"沾益区","level":"district","parent":530300},{"adcode":530304,"lng":103.578755,"lat":25.429451,"name":"马龙区","level":"district","parent":530300},{"adcode":530322,"lng":103.655233,"lat":25.022878,"name":"陆良县","level":"district","parent":530300},{"adcode":530323,"lng":103.993808,"lat":24.825681,"name":"师宗县","level":"district","parent":530300},{"adcode":530324,"lng":104.309263,"lat":24.885708,"name":"罗平县","level":"district","parent":530300},{"adcode":530325,"lng":104.25692,"lat":25.67064,"name":"富源县","level":"district","parent":530300},{"adcode":530326,"lng":103.300041,"lat":26.412861,"name":"会泽县","level":"district","parent":530300},{"adcode":530381,"lng":104.09554,"lat":26.227777,"name":"宣威市","level":"district","parent":530300}],"total":9}