{"rows":[{"adcode":530802,"lng":100.973227,"lat":22.776595,"name":"思茅区","level":"district","parent":530800},{"adcode":530821,"lng":101.04524,"lat":23.062507,"name":"宁洱哈尼族彝族自治县","level":"district","parent":530800},{"adcode":530822,"lng":101.687606,"lat":23.428165,"name":"墨江哈尼族自治县","level":"district","parent":530800},{"adcode":530823,"lng":100.840011,"lat":24.448523,"name":"景东彝族自治县","level":"district","parent":530800},{"adcode":530824,"lng":100.701425,"lat":23.500278,"name":"景谷傣族彝族自治县","level":"district","parent":530800},{"adcode":530825,"lng":101.108512,"lat":24.005712,"name":"镇沅彝族哈尼族拉祜族自治县","level":"district","parent":530800},{"adcode":530826,"lng":101.859144,"lat":22.58336,"name":"江城哈尼族彝族自治县","level":"district","parent":530800},{"adcode":530827,"lng":99.585406,"lat":22.325924,"name":"孟连傣族拉祜族佤族自治县","level":"district","parent":530800},{"adcode":530828,"lng":99.931201,"lat":22.553083,"name":"澜沧拉祜族自治县","level":"district","parent":530800},{"adcode":530829,"lng":99.594372,"lat":22.644423,"name":"西盟佤族自治县","level":"district","parent":530800}],"total":10}