{"rows":[{"adcode":"530724","people_count_2010":null,"lat":27.281109,"lng":100.852427,"name":"宁蒗彝族自治县","level":"district","parent":"丽江市"},{"adcode":"530324","people_count_2010":549680,"lat":24.885708,"lng":104.309263,"name":"罗平县","level":"district","parent":"曲靖市"},{"adcode":"533423","people_count_2010":null,"lat":27.180948,"lng":99.286355,"name":"维西傈僳族自治县","level":"district","parent":"迪庆藏族自治州"},{"adcode":"532927","people_count_2010":null,"lat":25.230909,"lng":100.30793,"name":"巍山彝族回族自治县","level":"district","parent":"大理白族自治州"},{"adcode":"530823","people_count_2010":null,"lat":24.448523,"lng":100.840011,"name":"景东彝族自治县","level":"district","parent":"普洱市"},{"adcode":"530825","people_count_2010":null,"lat":24.005712,"lng":101.108512,"name":"镇沅彝族哈尼族拉祜族自治县","level":"district","parent":"普洱市"},{"adcode":"530827","people_count_2010":null,"lat":22.325924,"lng":99.585406,"name":"孟连傣族拉祜族佤族自治县","level":"district","parent":"普洱市"},{"adcode":"530829","people_count_2010":null,"lat":22.644423,"lng":99.594372,"name":"西盟佤族自治县","level":"district","parent":"普洱市"},{"adcode":"532532","people_count_2010":null,"lat":22.507563,"lng":103.961593,"name":"河口瑶族自治县","level":"district","parent":"红河哈尼族彝族自治州"},{"adcode":"530423","people_count_2010":300800,"lat":24.112205,"lng":102.760039,"name":"通海县","level":"district","parent":"玉溪市"},{"adcode":"532622","people_count_2010":463261,"lat":23.612301,"lng":104.343989,"name":"砚山县","level":"district","parent":"文山壮族苗族自治州"},{"adcode":"530927","people_count_2010":null,"lat":23.146887,"lng":99.2474,"name":"沧源佤族自治县","level":"district","parent":"临沧市"},{"adcode":"530902","people_count_2010":323708,"lat":23.886562,"lng":100.086486,"name":"临翔区","level":"district","parent":"临沧市"},{"adcode":"533123","people_count_2010":305167,"lat":24.709541,"lng":97.93393,"name":"盈江县","level":"district","parent":"德宏傣族景颇族自治州"},{"adcode":"530627","people_count_2010":1300000,"lat":27.436267,"lng":104.873055,"name":"镇雄县","level":"district","parent":"昭通市"},{"adcode":"532930","people_count_2010":268313,"lat":26.111184,"lng":99.951708,"name":"洱源县","level":"district","parent":"大理白族自治州"},{"adcode":"530427","people_count_2010":null,"lat":24.0664,"lng":101.990903,"name":"新平彝族傣族自治县","level":"district","parent":"玉溪市"},{"adcode":"530424","people_count_2010":214650,"lat":24.189807,"lng":102.928982,"name":"华宁县","level":"district","parent":"玉溪市"},{"adcode":"530322","people_count_2010":622397,"lat":25.022878,"lng":103.655233,"name":"陆良县","level":"district","parent":"曲靖市"},{"adcode":"530323","people_count_2010":392361,"lat":24.825681,"lng":103.993808,"name":"师宗县","level":"district","parent":"曲靖市"},{"adcode":"530422","people_count_2010":169366,"lat":24.669679,"lng":102.916652,"name":"澄江县","level":"district","parent":"玉溪市"},{"adcode":"530425","people_count_2010":1500000,"lat":24.669598,"lng":102.16211,"name":"易门县","level":"district","parent":"玉溪市"},{"adcode":"532331","people_count_2010":4900000,"lat":25.14327,"lng":102.075694,"name":"禄丰县","level":"district","parent":"楚雄彝族自治州"},{"adcode":"532327","people_count_2010":109304,"lat":26.056316,"lng":101.671175,"name":"永仁县","level":"district","parent":"楚雄彝族自治州"},{"adcode":"533324","people_count_2010":null,"lat":27.738054,"lng":98.666141,"name":"贡山独龙族怒族自治县","level":"district","parent":"怒江傈僳族自治州"},{"adcode":"533102","people_count_2010":180627,"lat":24.010734,"lng":97.855883,"name":"瑞丽市","level":"district","parent":"德宏傣族景颇族自治州"},{"adcode":"530126","people_count_2010":null,"lat":24.754545,"lng":103.271962,"name":"石林彝族自治县","level":"district","parent":"昆明市"},{"adcode":"530824","people_count_2010":null,"lat":23.500278,"lng":100.701425,"name":"景谷傣族彝族自治县","level":"district","parent":"普洱市"},{"adcode":"530428","people_count_2010":null,"lat":23.597618,"lng":101.999658,"name":"元江哈尼族彝族傣族自治县","level":"district","parent":"玉溪市"},{"adcode":"532328","people_count_2010":215795,"lat":25.703313,"lng":101.870837,"name":"元谋县","level":"district","parent":"楚雄彝族自治州"},{"adcode":"530623","people_count_2010":369881,"lat":28.106923,"lng":104.23506,"name":"盐津县","level":"district","parent":"昭通市"},{"adcode":"530621","people_count_2010":390654,"lat":27.191637,"lng":103.549333,"name":"鲁甸县","level":"district","parent":"昭通市"},{"adcode":"530722","people_count_2010":392024,"lat":26.685623,"lng":100.750901,"name":"永胜县","level":"district","parent":"丽江市"},{"adcode":"530421","people_count_2010":280889,"lat":24.291006,"lng":102.749839,"name":"江川县","level":"district","parent":"玉溪市"},{"adcode":"532932","people_count_2010":1500000,"lat":26.55839,"lng":100.173375,"name":"鹤庆县","level":"district","parent":"大理白族自治州"},{"adcode":"533321","people_count_2010":184835,"lat":25.851142,"lng":98.854063,"name":"泸水县","level":"district","parent":"怒江傈僳族自治州"},{"adcode":"530128","people_count_2010":null,"lat":25.556533,"lng":102.46905,"name":"禄劝彝族苗族自治县","level":"district","parent":"昆明市"},{"adcode":"530127","people_count_2010":2000000,"lat":25.335087,"lng":103.038777,"name":"嵩明县","level":"district","parent":"昆明市"},{"adcode":"530630","people_count_2010":102143,"lat":28.629688,"lng":104.415376,"name":"水富县","level":"district","parent":"昭通市"},{"adcode":"530122","people_count_2010":283784,"lat":24.666944,"lng":102.594987,"name":"晋宁县","level":"district","parent":"昆明市"},{"adcode":"530326","people_count_2010":908292,"lat":26.412861,"lng":103.300041,"name":"会泽县","level":"district","parent":"曲靖市"},{"adcode":"532323","people_count_2010":208726,"lat":25.312111,"lng":101.543044,"name":"牟定县","level":"district","parent":"楚雄彝族自治州"},{"adcode":"530702","people_count_2010":640545,"lat":26.872229,"lng":100.234412,"name":"古城区","level":"district","parent":"丽江市"},{"adcode":"530721","people_count_2010":null,"lat":26.830593,"lng":100.238312,"name":"玉龙纳西族自治县","level":"district","parent":"丽江市"},{"adcode":"530922","people_count_2010":449460,"lat":24.439026,"lng":100.125637,"name":"云县","level":"district","parent":"临沧市"},{"adcode":"530921","people_count_2010":458322,"lat":24.592738,"lng":99.91871,"name":"凤庆县","level":"district","parent":"临沧市"},{"adcode":"532624","people_count_2010":277960,"lat":23.124202,"lng":104.701899,"name":"麻栗坡县","level":"district","parent":"文山壮族苗族自治州"},{"adcode":"532627","people_count_2010":787449,"lat":24.050272,"lng":105.056684,"name":"广南县","level":"district","parent":"文山壮族苗族自治州"},{"adcode":"530629","people_count_2010":385865,"lat":27.843381,"lng":105.04869,"name":"威信县","level":"district","parent":"昭通市"},{"adcode":"530625","people_count_2010":394267,"lat":28.231526,"lng":103.63732,"name":"永善县","level":"district","parent":"昭通市"},{"adcode":"530626","people_count_2010":153091,"lat":28.599953,"lng":103.961095,"name":"绥江县","level":"district","parent":"昭通市"},{"adcode":"532628","people_count_2010":1500000,"lat":23.626494,"lng":105.62856,"name":"富宁县","level":"district","parent":"文山壮族苗族自治州"},{"adcode":"532625","people_count_2010":367507,"lat":23.011723,"lng":104.398619,"name":"马关县","level":"district","parent":"文山壮族苗族自治州"},{"adcode":"530926","people_count_2010":null,"lat":23.534579,"lng":99.402495,"name":"耿马傣族佤族自治县","level":"district","parent":"临沧市"},{"adcode":"530602","people_count_2010":787837,"lat":27.336636,"lng":103.717267,"name":"昭阳区","level":"district","parent":"昭通市"},{"adcode":"530821","people_count_2010":null,"lat":23.062507,"lng":101.04524,"name":"宁洱哈尼族彝族自治县","level":"district","parent":"普洱市"},{"adcode":"533122","people_count_2010":154175,"lat":24.80742,"lng":98.298196,"name":"梁河县","level":"district","parent":"德宏傣族景颇族自治州"},{"adcode":"532924","people_count_2010":348754,"lat":25.825904,"lng":100.578957,"name":"宾川县","level":"district","parent":"大理白族自治州"},{"adcode":"532301","people_count_2010":588620,"lat":25.040912,"lng":101.546145,"name":"楚雄市","level":"district","parent":"楚雄彝族自治州"},{"adcode":"532324","people_count_2010":236133,"lat":25.192408,"lng":101.274991,"name":"南华县","level":"district","parent":"楚雄彝族自治州"},{"adcode":"530111","people_count_2010":853371,"lat":25.021211,"lng":102.723437,"name":"官渡区","level":"district","parent":"昆明市"},{"adcode":"530826","people_count_2010":null,"lat":22.58336,"lng":101.859144,"name":"江城哈尼族彝族自治县","level":"district","parent":"普洱市"},{"adcode":"532626","people_count_2010":477441,"lat":24.040982,"lng":104.194366,"name":"丘北县","level":"district","parent":"文山壮族苗族自治州"},{"adcode":"532931","people_count_2010":169973,"lat":26.530066,"lng":99.905887,"name":"剑川县","level":"district","parent":"大理白族自治州"},{"adcode":"530181","people_count_2010":341341,"lat":24.921785,"lng":102.485544,"name":"安宁市","level":"district","parent":"昆明市"},{"adcode":"530124","people_count_2010":145554,"lat":25.219667,"lng":102.497888,"name":"富民县","level":"district","parent":"昆明市"},{"adcode":"530321","people_count_2010":184989,"lat":25.429451,"lng":103.578755,"name":"马龙县","level":"district","parent":"曲靖市"},{"adcode":"532901","people_count_2010":856655,"lat":25.593067,"lng":100.241369,"name":"大理市","level":"district","parent":"大理白族自治州"},{"adcode":"530581","people_count_2010":null,"lat":25.01757,"lng":98.497292,"name":"腾冲市","level":"district","parent":"保山市"},{"adcode":"532523","people_count_2010":null,"lat":22.987013,"lng":103.687229,"name":"屏边苗族自治县","level":"district","parent":"红河哈尼族彝族自治州"},{"adcode":"532502","people_count_2010":322693,"lat":23.713832,"lng":103.258679,"name":"开远市","level":"district","parent":"红河哈尼族彝族自治州"},{"adcode":"532503","people_count_2010":null,"lat":23.366843,"lng":103.385005,"name":"蒙自市","level":"district","parent":"红河哈尼族彝族自治州"},{"adcode":"532501","people_count_2010":459781,"lat":23.360383,"lng":103.154752,"name":"个旧市","level":"district","parent":"红河哈尼族彝族自治州"},{"adcode":"532928","people_count_2010":175163,"lat":25.461281,"lng":99.533536,"name":"永平县","level":"district","parent":"大理白族自治州"},{"adcode":"532529","people_count_2010":1000000,"lat":23.369191,"lng":102.42121,"name":"红河县","level":"district","parent":"红河哈尼族彝族自治州"},{"adcode":"532524","people_count_2010":531456,"lat":23.618387,"lng":102.820493,"name":"建水县","level":"district","parent":"红河哈尼族彝族自治州"},{"adcode":"530328","people_count_2010":431058,"lat":25.600878,"lng":103.819262,"name":"沾益县","level":"district","parent":"曲靖市"},{"adcode":"530502","people_count_2010":935618,"lat":25.112144,"lng":99.165825,"name":"隆阳区","level":"district","parent":"保山市"},{"adcode":"532528","people_count_2010":396777,"lat":23.219773,"lng":102.837056,"name":"元阳县","level":"district","parent":"红河哈尼族彝族自治州"},{"adcode":"530521","people_count_2010":305223,"lat":24.730847,"lng":99.183758,"name":"施甸县","level":"district","parent":"保山市"},{"adcode":"530524","people_count_2010":343566,"lat":24.823662,"lng":99.612344,"name":"昌宁县","level":"district","parent":"保山市"},{"adcode":"532325","people_count_2010":197676,"lat":25.505403,"lng":101.238399,"name":"姚安县","level":"district","parent":"楚雄彝族自治州"},{"adcode":"530822","people_count_2010":null,"lat":23.428165,"lng":101.687606,"name":"墨江哈尼族自治县","level":"district","parent":"普洱市"},{"adcode":"532925","people_count_2010":1300000,"lat":25.342594,"lng":100.490669,"name":"弥渡县","level":"district","parent":"大理白族自治州"},{"adcode":"532801","people_count_2010":519935,"lat":22.002087,"lng":100.797947,"name":"景洪市","level":"district","parent":"西双版纳傣族自治州"},{"adcode":"532823","people_count_2010":3700000,"lat":21.479449,"lng":101.567051,"name":"勐腊县","level":"district","parent":"西双版纳傣族自治州"},{"adcode":"530523","people_count_2010":277319,"lat":24.591912,"lng":98.693567,"name":"龙陵县","level":"district","parent":"保山市"},{"adcode":"530426","people_count_2010":null,"lat":24.173256,"lng":102.404358,"name":"峨山彝族自治县","level":"district","parent":"玉溪市"},{"adcode":"530129","people_count_2010":null,"lat":25.559474,"lng":103.257588,"name":"寻甸回族彝族自治县","level":"district","parent":"昆明市"},{"adcode":"530103","people_count_2010":809881,"lat":25.070239,"lng":102.729044,"name":"盘龙区","level":"district","parent":"昆明市"},{"adcode":"532623","people_count_2010":255286,"lat":23.437439,"lng":104.675711,"name":"西畴县","level":"district","parent":"文山壮族苗族自治州"},{"adcode":"532922","people_count_2010":null,"lat":25.669543,"lng":99.95797,"name":"漾濞彝族自治县","level":"district","parent":"大理白族自治州"},{"adcode":"530925","people_count_2010":null,"lat":23.477476,"lng":99.824419,"name":"双江拉祜族佤族布朗族傣族自治县","level":"district","parent":"临沧市"},{"adcode":"532525","people_count_2010":299114,"lat":23.712569,"lng":102.484469,"name":"石屏县","level":"district","parent":"红河哈尼族彝族自治州"},{"adcode":"532504","people_count_2010":null,"lat":24.40837,"lng":103.436988,"name":"弥勒市","level":"district","parent":"红河哈尼族彝族自治州"},{"adcode":"532531","people_count_2010":3900000,"lat":22.99352,"lng":102.39286,"name":"绿春县","level":"district","parent":"红河哈尼族彝族自治州"},{"adcode":"532527","people_count_2010":400734,"lat":24.532368,"lng":103.759622,"name":"泸西县","level":"district","parent":"红河哈尼族彝族自治州"},{"adcode":"532530","people_count_2010":null,"lat":22.779982,"lng":103.228359,"name":"金平苗族瑶族傣族自治县","level":"district","parent":"红河哈尼族彝族自治州"},{"adcode":"532326","people_count_2010":273315,"lat":25.722348,"lng":101.323602,"name":"大姚县","level":"district","parent":"楚雄彝族自治州"},{"adcode":"532329","people_count_2010":271963,"lat":25.5301,"lng":102.406785,"name":"武定县","level":"district","parent":"楚雄彝族自治州"},{"adcode":"530402","people_count_2010":495129,"lat":24.350753,"lng":102.543468,"name":"红塔区","level":"district","parent":"玉溪市"},{"adcode":"532929","people_count_2010":199880,"lat":25.884955,"lng":99.369402,"name":"云龙县","level":"district","parent":"大理白族自治州"},{"adcode":"533323","people_count_2010":1000000,"lat":26.902738,"lng":98.867413,"name":"福贡县","level":"district","parent":"怒江傈僳族自治州"},{"adcode":"530114","people_count_2010":null,"lat":24.889275,"lng":102.801382,"name":"呈贡区","level":"district","parent":"昆明市"},{"adcode":"532822","people_count_2010":331850,"lat":21.955866,"lng":100.448288,"name":"勐海县","level":"district","parent":"西双版纳傣族自治州"},{"adcode":"533325","people_count_2010":null,"lat":26.453839,"lng":99.421378,"name":"兰坪白族普米族自治县","level":"district","parent":"怒江傈僳族自治州"},{"adcode":"530102","people_count_2010":855521,"lat":25.042165,"lng":102.704412,"name":"五华区","level":"district","parent":"昆明市"},{"adcode":"530125","people_count_2010":911835,"lat":24.918215,"lng":103.145989,"name":"宜良县","level":"district","parent":"昆明市"},{"adcode":"530112","people_count_2010":753813,"lat":25.02436,"lng":102.705904,"name":"西山区","level":"district","parent":"昆明市"},{"adcode":"530113","people_count_2010":271917,"lat":26.08349,"lng":103.182,"name":"东川区","level":"district","parent":"昆明市"},{"adcode":"530622","people_count_2010":516349,"lat":26.9117,"lng":102.929284,"name":"巧家县","level":"district","parent":"昭通市"},{"adcode":"530624","people_count_2010":263225,"lat":27.747114,"lng":103.891608,"name":"大关县","level":"district","parent":"昭通市"},{"adcode":"533103","people_count_2010":389891,"lat":24.436699,"lng":98.577608,"name":"芒市","level":"district","parent":"德宏傣族景颇族自治州"},{"adcode":"533124","people_count_2010":715917,"lat":24.184065,"lng":97.794441,"name":"陇川县","level":"district","parent":"德宏傣族景颇族自治州"},{"adcode":"530381","people_count_2010":1300000,"lat":26.227777,"lng":104.09554,"name":"宣威市","level":"district","parent":"曲靖市"},{"adcode":"533401","people_count_2010":null,"lat":27.825804,"lng":99.708667,"name":"香格里拉市","level":"district","parent":"迪庆藏族自治州"},{"adcode":"532923","people_count_2010":455605,"lat":25.477072,"lng":100.554025,"name":"祥云县","level":"district","parent":"大理白族自治州"},{"adcode":"532601","people_count_2010":null,"lat":23.369216,"lng":104.244277,"name":"文山市","level":"district","parent":"文山壮族苗族自治州"},{"adcode":"530723","people_count_2010":8300000,"lat":26.628834,"lng":101.267796,"name":"华坪县","level":"district","parent":"丽江市"},{"adcode":"532926","people_count_2010":null,"lat":25.041279,"lng":100.518683,"name":"南涧彝族自治县","level":"district","parent":"大理白族自治州"},{"adcode":"530828","people_count_2010":null,"lat":22.553083,"lng":99.931201,"name":"澜沧拉祜族自治县","level":"district","parent":"普洱市"},{"adcode":"530924","people_count_2010":4200000,"lat":23.761415,"lng":98.82743,"name":"镇康县","level":"district","parent":"临沧市"},{"adcode":"532322","people_count_2010":159867,"lat":24.685094,"lng":101.63824,"name":"双柏县","level":"district","parent":"楚雄彝族自治州"},{"adcode":"530325","people_count_2010":722640,"lat":25.67064,"lng":104.25692,"name":"富源县","level":"district","parent":"曲靖市"},{"adcode":"530302","people_count_2010":740747,"lat":25.501269,"lng":103.798054,"name":"麒麟区","level":"district","parent":"曲靖市"},{"adcode":"530923","people_count_2010":369702,"lat":24.028159,"lng":99.253679,"name":"永德县","level":"district","parent":"临沧市"},{"adcode":"533422","people_count_2010":387799,"lat":28.483272,"lng":98.91506,"name":"德钦县","level":"district","parent":"迪庆藏族自治州"},{"adcode":"530802","people_count_2010":null,"lat":22.776595,"lng":100.973227,"name":"思茅区","level":"district","parent":"普洱市"},{"adcode":"530628","people_count_2010":521838,"lat":27.627425,"lng":104.048492,"name":"彝良县","level":"district","parent":"昭通市"}],"total":129}