{"rows":[{"adcode":532501,"lng":103.154752,"lat":23.360383,"name":"个旧市","level":"district","parent":532500},{"adcode":532502,"lng":103.258679,"lat":23.713832,"name":"开远市","level":"district","parent":532500},{"adcode":532503,"lng":103.385005,"lat":23.366843,"name":"蒙自市","level":"district","parent":532500},{"adcode":532504,"lng":103.436988,"lat":24.40837,"name":"弥勒市","level":"district","parent":532500},{"adcode":532523,"lng":103.687229,"lat":22.987013,"name":"屏边苗族自治县","level":"district","parent":532500},{"adcode":532524,"lng":102.820493,"lat":23.618387,"name":"建水县","level":"district","parent":532500},{"adcode":532525,"lng":102.484469,"lat":23.712569,"name":"石屏县","level":"district","parent":532500},{"adcode":532527,"lng":103.759622,"lat":24.532368,"name":"泸西县","level":"district","parent":532500},{"adcode":532528,"lng":102.837056,"lat":23.219773,"name":"元阳县","level":"district","parent":532500},{"adcode":532529,"lng":102.42121,"lat":23.369191,"name":"红河县","level":"district","parent":532500},{"adcode":532530,"lng":103.228359,"lat":22.779982,"name":"金平苗族瑶族傣族自治县","level":"district","parent":532500},{"adcode":532531,"lng":102.39286,"lat":22.99352,"name":"绿春县","level":"district","parent":532500},{"adcode":532532,"lng":103.961593,"lat":22.507563,"name":"河口瑶族自治县","level":"district","parent":532500}],"total":13}