{"rows":[{"adcode":532601,"lng":104.244277,"lat":23.369216,"name":"文山市","level":"district","parent":532600},{"adcode":532622,"lng":104.343989,"lat":23.612301,"name":"砚山县","level":"district","parent":532600},{"adcode":532623,"lng":104.675711,"lat":23.437439,"name":"西畴县","level":"district","parent":532600},{"adcode":532624,"lng":104.701899,"lat":23.124202,"name":"麻栗坡县","level":"district","parent":532600},{"adcode":532625,"lng":104.398619,"lat":23.011723,"name":"马关县","level":"district","parent":532600},{"adcode":532626,"lng":104.194366,"lat":24.040982,"name":"丘北县","level":"district","parent":532600},{"adcode":532627,"lng":105.056684,"lat":24.050272,"name":"广南县","level":"district","parent":532600},{"adcode":532628,"lng":105.62856,"lat":23.626494,"name":"富宁县","level":"district","parent":532600}],"total":8}