{"rows":[{"adcode":540402,"lng":94.360987,"lat":29.653732,"name":"巴宜区","level":"district","parent":540400},{"adcode":540421,"lng":93.246515,"lat":29.88447,"name":"工布江达县","level":"district","parent":540400},{"adcode":540422,"lng":94.213679,"lat":29.213811,"name":"米林县","level":"district","parent":540400},{"adcode":540423,"lng":95.332245,"lat":29.32573,"name":"墨脱县","level":"district","parent":540400},{"adcode":540424,"lng":95.768151,"lat":29.858771,"name":"波密县","level":"district","parent":540400},{"adcode":540425,"lng":97.465002,"lat":28.660244,"name":"察隅县","level":"district","parent":540400},{"adcode":540426,"lng":93.073429,"lat":29.0446,"name":"朗县","level":"district","parent":540400}],"total":7}