{"rows":[{"adcode":610102,"lng":108.959903,"lat":34.26927,"name":"新城区","level":"district","parent":610100},{"adcode":610103,"lng":108.946994,"lat":34.251061,"name":"碑林区","level":"district","parent":610100},{"adcode":610104,"lng":108.933194,"lat":34.2656,"name":"莲湖区","level":"district","parent":610100},{"adcode":610111,"lng":109.067261,"lat":34.267453,"name":"灞桥区","level":"district","parent":610100},{"adcode":610112,"lng":108.946022,"lat":34.30823,"name":"未央区","level":"district","parent":610100},{"adcode":610113,"lng":108.926593,"lat":34.213389,"name":"雁塔区","level":"district","parent":610100},{"adcode":610114,"lng":109.22802,"lat":34.662141,"name":"阎良区","level":"district","parent":610100},{"adcode":610115,"lng":109.213986,"lat":34.372065,"name":"临潼区","level":"district","parent":610100},{"adcode":610116,"lng":108.941579,"lat":34.157097,"name":"长安区","level":"district","parent":610100},{"adcode":610117,"lng":109.088896,"lat":34.535065,"name":"高陵区","level":"district","parent":610100},{"adcode":610118,"lng":108.607385,"lat":34.108668,"name":"鄠邑区","level":"district","parent":610100},{"adcode":610122,"lng":109.317634,"lat":34.156189,"name":"蓝田县","level":"district","parent":610100},{"adcode":610124,"lng":108.216465,"lat":34.161532,"name":"周至县","level":"district","parent":610100}],"total":13}