{"rows":[{"adcode":620102,"lng":103.841032,"lat":36.049115,"name":"城关区","level":"district","parent":620100},{"adcode":620103,"lng":103.784326,"lat":36.06673,"name":"七里河区","level":"district","parent":620100},{"adcode":620104,"lng":103.622331,"lat":36.100369,"name":"西固区","level":"district","parent":620100},{"adcode":620105,"lng":103.724038,"lat":36.10329,"name":"安宁区","level":"district","parent":620100},{"adcode":620111,"lng":102.861814,"lat":36.344177,"name":"红古区","level":"district","parent":620100},{"adcode":620121,"lng":103.262203,"lat":36.734428,"name":"永登县","level":"district","parent":620100},{"adcode":620122,"lng":103.94933,"lat":36.331254,"name":"皋兰县","level":"district","parent":620100},{"adcode":620123,"lng":104.114975,"lat":35.84443,"name":"榆中县","level":"district","parent":620100}],"total":8}