{"rows":[{"adcode":620802,"lng":106.684223,"lat":35.54173,"name":"崆峒区","level":"district","parent":620800},{"adcode":620821,"lng":107.365218,"lat":35.335283,"name":"泾川县","level":"district","parent":620800},{"adcode":620822,"lng":107.620587,"lat":35.064009,"name":"灵台县","level":"district","parent":620800},{"adcode":620823,"lng":107.031253,"lat":35.304533,"name":"崇信县","level":"district","parent":620800},{"adcode":620825,"lng":106.041979,"lat":35.203428,"name":"庄浪县","level":"district","parent":620800},{"adcode":620826,"lng":105.733489,"lat":35.525243,"name":"静宁县","level":"district","parent":620800},{"adcode":620881,"lng":106.649308,"lat":35.215342,"name":"华亭市","level":"district","parent":620800}],"total":7}