{"rows":[{"adcode":621002,"lng":107.638824,"lat":35.733713,"name":"西峰区","level":"district","parent":621000},{"adcode":621021,"lng":107.885664,"lat":36.013504,"name":"庆城县","level":"district","parent":621000},{"adcode":621022,"lng":107.308754,"lat":36.569322,"name":"环县","level":"district","parent":621000},{"adcode":621023,"lng":107.986288,"lat":36.457304,"name":"华池县","level":"district","parent":621000},{"adcode":621024,"lng":108.019865,"lat":35.819005,"name":"合水县","level":"district","parent":621000},{"adcode":621025,"lng":108.361068,"lat":35.490642,"name":"正宁县","level":"district","parent":621000},{"adcode":621026,"lng":107.921182,"lat":35.50201,"name":"宁县","level":"district","parent":621000},{"adcode":621027,"lng":107.195706,"lat":35.677806,"name":"镇原县","level":"district","parent":621000}],"total":8}