{"rows":[{"adcode":622901,"lng":103.211634,"lat":35.59941,"name":"临夏市","level":"district","parent":622900},{"adcode":622921,"lng":102.993873,"lat":35.49236,"name":"临夏县","level":"district","parent":622900},{"adcode":622922,"lng":103.709852,"lat":35.371906,"name":"康乐县","level":"district","parent":622900},{"adcode":622923,"lng":103.319871,"lat":35.938933,"name":"永靖县","level":"district","parent":622900},{"adcode":622924,"lng":103.576188,"lat":35.481688,"name":"广河县","level":"district","parent":622900},{"adcode":622925,"lng":103.350357,"lat":35.425971,"name":"和政县","level":"district","parent":622900},{"adcode":622926,"lng":103.389568,"lat":35.66383,"name":"东乡族自治县","level":"district","parent":622900},{"adcode":622927,"lng":102.877473,"lat":35.712906,"name":"积石山保安族东乡族撒拉族自治县","level":"district","parent":622900}],"total":8}