{"rows":[{"adcode":632521,"lng":100.619597,"lat":36.280286,"name":"共和县","level":"district","parent":632500},{"adcode":632522,"lng":100.579465,"lat":35.254492,"name":"同德县","level":"district","parent":632500},{"adcode":632523,"lng":101.431856,"lat":36.040456,"name":"贵德县","level":"district","parent":632500},{"adcode":632524,"lng":99.986963,"lat":35.58909,"name":"兴海县","level":"district","parent":632500},{"adcode":632525,"lng":100.74792,"lat":35.587085,"name":"贵南县","level":"district","parent":632500}],"total":5}