{"rows":[{"adcode":632701,"lng":97.008762,"lat":33.00393,"name":"玉树市","level":"district","parent":632700},{"adcode":632722,"lng":95.293423,"lat":32.891886,"name":"杂多县","level":"district","parent":632700},{"adcode":632723,"lng":97.110893,"lat":33.367884,"name":"称多县","level":"district","parent":632700},{"adcode":632724,"lng":95.616843,"lat":33.852322,"name":"治多县","level":"district","parent":632700},{"adcode":632725,"lng":96.479797,"lat":32.203206,"name":"囊谦县","level":"district","parent":632700},{"adcode":632726,"lng":95.800674,"lat":34.12654,"name":"曲麻莱县","level":"district","parent":632700}],"total":6}