{"rows":[{"adcode":632801,"lng":94.905777,"lat":36.401541,"name":"格尔木市","level":"district","parent":632800},{"adcode":632802,"lng":97.370143,"lat":37.374555,"name":"德令哈市","level":"district","parent":632800},{"adcode":632803,"lng":90.855955,"lat":38.247117,"name":"茫崖市","level":"district","parent":632800},{"adcode":632821,"lng":98.479852,"lat":36.930389,"name":"乌兰县","level":"district","parent":632800},{"adcode":632822,"lng":98.089161,"lat":36.298553,"name":"都兰县","level":"district","parent":632800},{"adcode":632823,"lng":99.02078,"lat":37.29906,"name":"天峻县","level":"district","parent":632800},{"adcode":632825,"lng":95.357233,"lat":37.853631,"name":"海西蒙古族藏族自治州直辖","level":"district","parent":632800}],"total":7}