{"rows":[{"adcode":640104,"lng":106.278393,"lat":38.46747,"name":"兴庆区","level":"district","parent":640100},{"adcode":640105,"lng":106.132116,"lat":38.492424,"name":"西夏区","level":"district","parent":640100},{"adcode":640106,"lng":106.228486,"lat":38.477353,"name":"金凤区","level":"district","parent":640100},{"adcode":640121,"lng":106.253781,"lat":38.28043,"name":"永宁县","level":"district","parent":640100},{"adcode":640122,"lng":106.345904,"lat":38.554563,"name":"贺兰县","level":"district","parent":640100},{"adcode":640181,"lng":106.334701,"lat":38.094058,"name":"灵武市","level":"district","parent":640100}],"total":6}