{"rows":[{"adcode":640402,"lng":106.28477,"lat":36.005337,"name":"原州区","level":"district","parent":640400},{"adcode":640422,"lng":105.731801,"lat":35.965384,"name":"西吉县","level":"district","parent":640400},{"adcode":640423,"lng":106.12344,"lat":35.618234,"name":"隆德县","level":"district","parent":640400},{"adcode":640424,"lng":106.338674,"lat":35.49344,"name":"泾源县","level":"district","parent":640400},{"adcode":640425,"lng":106.641512,"lat":35.849975,"name":"彭阳县","level":"district","parent":640400}],"total":5}