{"rows":[{"adcode":652301,"lng":87.304112,"lat":44.013183,"name":"昌吉市","level":"district","parent":652300},{"adcode":652302,"lng":87.98384,"lat":44.152153,"name":"阜康市","level":"district","parent":652300},{"adcode":652323,"lng":86.888613,"lat":44.189342,"name":"呼图壁县","level":"district","parent":652300},{"adcode":652324,"lng":86.217687,"lat":44.305625,"name":"玛纳斯县","level":"district","parent":652300},{"adcode":652325,"lng":89.591437,"lat":44.021996,"name":"奇台县","level":"district","parent":652300},{"adcode":652327,"lng":89.181288,"lat":43.997162,"name":"吉木萨尔县","level":"district","parent":652300},{"adcode":652328,"lng":90.282833,"lat":43.832442,"name":"木垒哈萨克自治县","level":"district","parent":652300}],"total":7}