{"rows":[{"adcode":653101,"lng":75.98838,"lat":39.467861,"name":"喀什市","level":"district","parent":653100},{"adcode":653121,"lng":75.863075,"lat":39.378306,"name":"疏附县","level":"district","parent":653100},{"adcode":653122,"lng":76.053653,"lat":39.399461,"name":"疏勒县","level":"district","parent":653100},{"adcode":653123,"lng":76.174292,"lat":38.929839,"name":"英吉沙县","level":"district","parent":653100},{"adcode":653124,"lng":77.273593,"lat":38.191217,"name":"泽普县","level":"district","parent":653100},{"adcode":653125,"lng":77.248884,"lat":38.414499,"name":"莎车县","level":"district","parent":653100},{"adcode":653126,"lng":77.420353,"lat":37.884679,"name":"叶城县","level":"district","parent":653100},{"adcode":653127,"lng":77.651538,"lat":38.903384,"name":"麦盖提县","level":"district","parent":653100},{"adcode":653128,"lng":76.7724,"lat":39.235248,"name":"岳普湖县","level":"district","parent":653100},{"adcode":653129,"lng":76.741982,"lat":39.494325,"name":"伽师县","level":"district","parent":653100},{"adcode":653130,"lng":78.55041,"lat":39.783479,"name":"巴楚县","level":"district","parent":653100},{"adcode":653131,"lng":75.228068,"lat":37.775437,"name":"塔什库尔干塔吉克自治县","level":"district","parent":653100}],"total":12}