{"rows":[{"adcode":810001,"lng":114.154334,"lat":22.281931,"name":"中西区","level":"district","parent":810000},{"adcode":810002,"lng":114.18299,"lat":22.276345,"name":"湾仔区","level":"district","parent":810000},{"adcode":810003,"lng":114.225965,"lat":22.279779,"name":"东区","level":"district","parent":810000},{"adcode":810004,"lng":114.160023,"lat":22.245811,"name":"南区","level":"district","parent":810000},{"adcode":810005,"lng":114.173347,"lat":22.311632,"name":"油尖旺区","level":"district","parent":810000},{"adcode":810006,"lng":114.163349,"lat":22.333775,"name":"深水埗区","level":"district","parent":810000},{"adcode":810007,"lng":114.193047,"lat":22.312373,"name":"九龙城区","level":"district","parent":810000},{"adcode":810008,"lng":114.203985,"lat":22.336112,"name":"黄大仙区","level":"district","parent":810000},{"adcode":810009,"lng":114.214083,"lat":22.320679,"name":"观塘区","level":"district","parent":810000},{"adcode":810010,"lng":114.121234,"lat":22.368458,"name":"荃湾区","level":"district","parent":810000},{"adcode":810011,"lng":113.976308,"lat":22.393896,"name":"屯门区","level":"district","parent":810000},{"adcode":810012,"lng":114.032528,"lat":22.44132,"name":"元朗区","level":"district","parent":810000},{"adcode":810013,"lng":114.147404,"lat":22.496143,"name":"北区","level":"district","parent":810000},{"adcode":810014,"lng":114.171713,"lat":22.44573,"name":"大埔区","level":"district","parent":810000},{"adcode":810015,"lng":114.264813,"lat":22.314203,"name":"西贡区","level":"district","parent":810000},{"adcode":810016,"lng":114.195126,"lat":22.379715,"name":"沙田区","level":"district","parent":810000},{"adcode":810017,"lng":114.13918,"lat":22.363908,"name":"葵青区","level":"district","parent":810000},{"adcode":810018,"lng":113.946059,"lat":22.286371,"name":"离岛区","level":"district","parent":810000}],"total":18}